[
  {
    "code": "COK",
    "name": "Cochin International Airport",
    "city": "Kochi",
    "country": "India",
    "lat": 10.152,
    "lng": 76.401901
  },
  {
    "code": "SHJ",
    "name": "Sharjah International Airport",
    "city": "Sharjah",
    "country": "United Arab Emirates",
    "lat": 25.32859993,
    "lng": 55.51720047
  },
  {
    "code": "GIG",
    "name": "Rio Galeão - Tom Jobim International Airport",
    "city": "Rio De Janeiro",
    "country": "Brazil",
    "lat": -22.80999947,
    "lng": -43.25055695
  },
  {
    "code": "BSB",
    "name": "Presidente Juscelino Kubistschek International Airport",
    "city": "Brasilia",
    "country": "Brazil",
    "lat": -15.86916733,
    "lng": -47.92083359
  },
  {
    "code": "TSF",
    "name": "Treviso-Sant'Angelo Airport",
    "city": "Treviso",
    "country": "Italy",
    "lat": 45.648399,
    "lng": 12.1944
  },
  {
    "code": "BRI",
    "name": "Bari Karol Wojtyła Airport",
    "city": "Bari",
    "country": "Italy",
    "lat": 41.138901,
    "lng": 16.760599
  },
  {
    "code": "CDG",
    "name": "Charles de Gaulle International Airport",
    "city": "Paris",
    "country": "France",
    "lat": 49.012798,
    "lng": 2.55
  },
  {
    "code": "FLR",
    "name": "Peretola Airport",
    "city": "Florence",
    "country": "Italy",
    "lat": 43.810001,
    "lng": 11.2051
  },
  {
    "code": "CGH",
    "name": "Congonhas Airport",
    "city": "Sao Paulo",
    "country": "Brazil",
    "lat": -23.62611008,
    "lng": -46.65638733
  },
  {
    "code": "CGB",
    "name": "Marechal Rondon Airport",
    "city": "Cuiaba",
    "country": "Brazil",
    "lat": -15.65289974,
    "lng": -56.11669922
  },
  {
    "code": "DFW",
    "name": "Dallas Fort Worth International Airport",
    "city": "Dallas-Fort Worth",
    "country": "United States",
    "lat": 32.896801,
    "lng": -97.038002
  },
  {
    "code": "YUL",
    "name": "Montreal / Pierre Elliott Trudeau International Airport",
    "city": "Montreal",
    "country": "Canada",
    "lat": 45.47060013,
    "lng": -73.74079895
  },
  {
    "code": "DOM",
    "name": "Douglas-Charles Airport",
    "city": "Dominica",
    "country": "Dominica",
    "lat": 15.547,
    "lng": -61.299999
  },
  {
    "code": "PTP",
    "name": "Pointe-à-Pitre Le Raizet",
    "city": "Pointe-a-pitre",
    "country": "Guadeloupe",
    "lat": 16.265301,
    "lng": -61.531799
  },
  {
    "code": "ATL",
    "name": "Hartsfield Jackson Atlanta International Airport",
    "city": "Atlanta",
    "country": "United States",
    "lat": 33.6367,
    "lng": -84.428101
  },
  {
    "code": "FCO",
    "name": "Leonardo da Vinci-Fiumicino Airport",
    "city": "Rome",
    "country": "Italy",
    "lat": 41.8002778,
    "lng": 12.2388889
  },
  {
    "code": "FUE",
    "name": "Fuerteventura Airport",
    "city": "Fuerteventura",
    "country": "Spain",
    "lat": 28.45269966,
    "lng": -13.86380005
  },
  {
    "code": "BCN",
    "name": "Barcelona International Airport",
    "city": "Barcelona",
    "country": "Spain",
    "lat": 41.2971,
    "lng": 2.07846
  },
  {
    "code": "BRS",
    "name": "Bristol Airport",
    "city": "Bristol",
    "country": "United Kingdom",
    "lat": 51.382702,
    "lng": -2.71909
  },
  {
    "code": "CHQ",
    "name": "Chania International Airport",
    "city": "Chania",
    "country": "Greece",
    "lat": 35.53170013,
    "lng": 24.14970016
  },
  {
    "code": "MNL",
    "name": "Ninoy Aquino International Airport",
    "city": "Manila",
    "country": "Philippines",
    "lat": 14.5086,
    "lng": 121.019997
  },
  {
    "code": "FUK",
    "name": "Fukuoka Airport",
    "city": "Fukuoka",
    "country": "Japan",
    "lat": 33.58589935,
    "lng": 130.451004
  },
  {
    "code": "MED",
    "name": "Prince Mohammad Bin Abdulaziz Airport",
    "city": "Madinah",
    "country": "Saudi Arabia",
    "lat": 24.5534,
    "lng": 39.705101
  },
  {
    "code": "DOH",
    "name": "Hamad International Airport",
    "city": "Doha",
    "country": "Qatar",
    "lat": 25.273056,
    "lng": 51.608056
  },
  {
    "code": "DUS",
    "name": "Düsseldorf Airport",
    "city": "Duesseldorf",
    "country": "Germany",
    "lat": 51.289501,
    "lng": 6.76678
  },
  {
    "code": "CTA",
    "name": "Catania-Fontanarossa Airport",
    "city": "Catania",
    "country": "Italy",
    "lat": 37.466801,
    "lng": 15.0664
  },
  {
    "code": "IOS",
    "name": "Bahia - Jorge Amado Airport",
    "city": "Ilheus",
    "country": "Brazil",
    "lat": -14.81599998,
    "lng": -39.03319931
  },
  {
    "code": "SZX",
    "name": "Shenzhen Bao'an International Airport",
    "city": "Shenzhen",
    "country": "China",
    "lat": 22.63929939,
    "lng": 113.810997
  },
  {
    "code": "CZX",
    "name": "Changzhou Benniu Airport",
    "city": "Changzhou",
    "country": "China",
    "lat": 31.919701,
    "lng": 119.778999
  },
  {
    "code": "CAN",
    "name": "Guangzhou Baiyun International Airport",
    "city": "Guangzhou",
    "country": "China",
    "lat": 23.39240074,
    "lng": 113.2990036
  },
  {
    "code": "YIH",
    "name": "Yichang Sanxia Airport",
    "city": "Yichang",
    "country": "China",
    "lat": 30.55655,
    "lng": 111.479988
  },
  {
    "code": "BHX",
    "name": "Birmingham International Airport",
    "city": "Birmingham",
    "country": "United Kingdom",
    "lat": 52.45389938,
    "lng": -1.748029947
  },
  {
    "code": "FRA",
    "name": "Frankfurt am Main Airport",
    "city": "Frankfurt",
    "country": "Germany",
    "lat": 50.033333,
    "lng": 8.570556
  },
  {
    "code": "GVA",
    "name": "Geneva Cointrin International Airport",
    "city": "Geneva",
    "country": "Switzerland",
    "lat": 46.23809814,
    "lng": 6.108950138
  },
  {
    "code": "RAK",
    "name": "Menara Airport",
    "city": "Marrakech",
    "country": "Morocco",
    "lat": 31.60689926,
    "lng": -8.036299706
  },
  {
    "code": "IND",
    "name": "Indianapolis International Airport",
    "city": "Indianapolis",
    "country": "United States",
    "lat": 39.7173,
    "lng": -86.294403
  },
  {
    "code": "CLE",
    "name": "Cleveland Hopkins International Airport",
    "city": "Cleveland",
    "country": "United States",
    "lat": 41.4117012,
    "lng": -81.84980011
  },
  {
    "code": "TTN",
    "name": "Trenton Mercer Airport",
    "city": "Trenton",
    "country": "United States",
    "lat": 40.27669907,
    "lng": -74.81349945
  },
  {
    "code": "SMF",
    "name": "Sacramento International Airport",
    "city": "Sacramento",
    "country": "United States",
    "lat": 38.69540024,
    "lng": -121.5910034
  },
  {
    "code": "IAD",
    "name": "Washington Dulles International Airport",
    "city": "Washington",
    "country": "United States",
    "lat": 38.94449997,
    "lng": -77.45580292
  },
  {
    "code": "ADB",
    "name": "Adnan Menderes International Airport",
    "city": "Izmir",
    "country": "Turkey",
    "lat": 38.29240036,
    "lng": 27.15699959
  },
  {
    "code": "MAN",
    "name": "Manchester Airport",
    "city": "Manchester",
    "country": "United Kingdom",
    "lat": 53.35369873,
    "lng": -2.274950027
  },
  {
    "code": "IBZ",
    "name": "Ibiza Airport",
    "city": "Ibiza",
    "country": "Spain",
    "lat": 38.8728981,
    "lng": 1.37311995
  },
  {
    "code": "TYN",
    "name": "Taiyuan Wusu Airport",
    "city": "Taiyuan",
    "country": "China",
    "lat": 37.74689865,
    "lng": 112.6279984
  },
  {
    "code": "URC",
    "name": "Ürümqi Diwopu International Airport",
    "city": "Urumqi",
    "country": "China",
    "lat": 43.90710068,
    "lng": 87.47419739
  },
  {
    "code": "TFN",
    "name": "Tenerife Norte Airport",
    "city": "Tenerife",
    "country": "Spain",
    "lat": 28.48270035,
    "lng": -16.34149933
  },
  {
    "code": "SPC",
    "name": "La Palma Airport",
    "city": "Santa Cruz De La Palma",
    "country": "Spain",
    "lat": 28.626499,
    "lng": -17.7556
  },
  {
    "code": "RMQ",
    "name": "Taichung Ching Chuang Kang Airport",
    "city": "Taichung",
    "country": "Taiwan",
    "lat": 24.26469994,
    "lng": 120.6210022
  },
  {
    "code": "XMN",
    "name": "Xiamen Gaoqi International Airport",
    "city": "Xiamen",
    "country": "China",
    "lat": 24.54400063,
    "lng": 118.1279984
  },
  {
    "code": "SJC",
    "name": "Norman Y. Mineta San Jose International Airport",
    "city": "San Jose",
    "country": "United States",
    "lat": 37.362598,
    "lng": -121.929001
  },
  {
    "code": "AUS",
    "name": "Austin Bergstrom International Airport",
    "city": "Austin",
    "country": "United States",
    "lat": 30.19449997,
    "lng": -97.66989899
  },
  {
    "code": "NCE",
    "name": "Nice-Côte d'Azur Airport",
    "city": "Nice",
    "country": "France",
    "lat": 43.65840149,
    "lng": 7.215869904
  },
  {
    "code": "JFK",
    "name": "John F Kennedy International Airport",
    "city": "New York",
    "country": "United States",
    "lat": 40.63980103,
    "lng": -73.77890015
  },
  {
    "code": "CLT",
    "name": "Charlotte Douglas International Airport",
    "city": "Charlotte",
    "country": "United States",
    "lat": 35.2140007,
    "lng": -80.94309998
  },
  {
    "code": "EWR",
    "name": "Newark Liberty International Airport",
    "city": "Newark",
    "country": "United States",
    "lat": 40.69250107,
    "lng": -74.16870117
  },
  {
    "code": "ACC",
    "name": "Kotoka International Airport",
    "city": "Accra",
    "country": "Ghana",
    "lat": 5.6051898,
    "lng": -0.166786
  },
  {
    "code": "DXB",
    "name": "Dubai International Airport",
    "city": "Dubai",
    "country": "United Arab Emirates",
    "lat": 25.25279999,
    "lng": 55.36439896
  },
  {
    "code": "EVN",
    "name": "Zvartnots International Airport",
    "city": "Yerevan",
    "country": "Armenia",
    "lat": 40.14730072,
    "lng": 44.39590073
  },
  {
    "code": "KUF",
    "name": "Kurumoch International Airport",
    "city": "Samara",
    "country": "Russia",
    "lat": 53.50490189,
    "lng": 50.16429901
  },
  {
    "code": "PEK",
    "name": "Beijing Capital International Airport",
    "city": "Beijing",
    "country": "China",
    "lat": 40.08010101,
    "lng": 116.5849991
  },
  {
    "code": "HGH",
    "name": "Hangzhou Xiaoshan International Airport",
    "city": "Hangzhou",
    "country": "China",
    "lat": 30.22949982,
    "lng": 120.4339981
  },
  {
    "code": "SIN",
    "name": "Singapore Changi Airport",
    "city": "Singapore",
    "country": "Singapore",
    "lat": 1.35019,
    "lng": 103.994003
  },
  {
    "code": "SGN",
    "name": "Tan Son Nhat International Airport",
    "city": "Ho Chi Minh City",
    "country": "Vietnam",
    "lat": 10.81879997,
    "lng": 106.6520004
  },
  {
    "code": "XIY",
    "name": "Xi'an Xianyang International Airport",
    "city": "Xi'an",
    "country": "China",
    "lat": 34.447102,
    "lng": 108.751999
  },
  {
    "code": "LXA",
    "name": "Lhasa Gonggar Airport",
    "city": "Lhasa",
    "country": "China",
    "lat": 29.29780006,
    "lng": 90.91190338
  },
  {
    "code": "TXL",
    "name": "Berlin-Tegel Airport",
    "city": "Berlin",
    "country": "Germany",
    "lat": 52.5597,
    "lng": 13.2877
  },
  {
    "code": "KAN",
    "name": "Mallam Aminu International Airport",
    "city": "Kano",
    "country": "Nigeria",
    "lat": 12.0476,
    "lng": 8.52462
  },
  {
    "code": "JED",
    "name": "King Abdulaziz International Airport",
    "city": "Jeddah",
    "country": "Saudi Arabia",
    "lat": 21.6796,
    "lng": 39.156502
  },
  {
    "code": "PLM",
    "name": "Sultan Mahmud Badaruddin II Airport",
    "city": "Palembang",
    "country": "Indonesia",
    "lat": -2.898250103,
    "lng": 104.6999969
  },
  {
    "code": "SAL",
    "name": "Monseñor Óscar Arnulfo Romero International Airport",
    "city": "San Salvador",
    "country": "El Salvador",
    "lat": 13.4409,
    "lng": -89.055702
  },
  {
    "code": "BOS",
    "name": "General Edward Lawrence Logan International Airport",
    "city": "Boston",
    "country": "United States",
    "lat": 42.36429977,
    "lng": -71.00520325
  },
  {
    "code": "OUA",
    "name": "Ouagadougou Airport",
    "city": "Ouagadougou",
    "country": "Burkina Faso",
    "lat": 12.3532,
    "lng": -1.51242
  },
  {
    "code": "NIM",
    "name": "Diori Hamani International Airport",
    "city": "Niamey",
    "country": "Niger",
    "lat": 13.4815,
    "lng": 2.18361
  },
  {
    "code": "NTE",
    "name": "Nantes Atlantique Airport",
    "city": "Nantes",
    "country": "France",
    "lat": 47.15319824,
    "lng": -1.610730052
  },
  {
    "code": "AMS",
    "name": "Amsterdam Airport Schiphol",
    "city": "Amsterdam",
    "country": "Netherlands",
    "lat": 52.308601,
    "lng": 4.76389
  },
  {
    "code": "CPH",
    "name": "Copenhagen Kastrup Airport",
    "city": "Copenhagen",
    "country": "Denmark",
    "lat": 55.61790085,
    "lng": 12.65600014
  },
  {
    "code": "VCE",
    "name": "Venice Marco Polo Airport",
    "city": "Venice",
    "country": "Italy",
    "lat": 45.505299,
    "lng": 12.3519
  },
  {
    "code": "MUC",
    "name": "Munich Airport",
    "city": "Munich",
    "country": "Germany",
    "lat": 48.353802,
    "lng": 11.7861
  },
  {
    "code": "AHO",
    "name": "Alghero-Fertilia Airport",
    "city": "Alghero",
    "country": "Italy",
    "lat": 40.632099,
    "lng": 8.29077
  },
  {
    "code": "MXP",
    "name": "Malpensa International Airport",
    "city": "Milano",
    "country": "Italy",
    "lat": 45.6306,
    "lng": 8.72811
  },
  {
    "code": "TFS",
    "name": "Tenerife South Airport",
    "city": "Tenerife",
    "country": "Spain",
    "lat": 28.04450035,
    "lng": -16.57250023
  },
  {
    "code": "PAD",
    "name": "Paderborn Lippstadt Airport",
    "city": "Paderborn",
    "country": "Germany",
    "lat": 51.61410141,
    "lng": 8.616319656
  },
  {
    "code": "RUN",
    "name": "Roland Garros Airport",
    "city": "St.-denis",
    "country": "Reunion",
    "lat": -20.88710022,
    "lng": 55.51029968
  },
  {
    "code": "DZA",
    "name": "Dzaoudzi Pamandzi International Airport",
    "city": "Dzaoudzi",
    "country": "Mayotte",
    "lat": -12.8046999,
    "lng": 45.28110123
  },
  {
    "code": "MEM",
    "name": "Memphis International Airport",
    "city": "Memphis",
    "country": "United States",
    "lat": 35.04240036,
    "lng": -89.97669983
  },
  {
    "code": "SAT",
    "name": "San Antonio International Airport",
    "city": "San Antonio",
    "country": "United States",
    "lat": 29.53370094,
    "lng": -98.46980286
  },
  {
    "code": "DME",
    "name": "Domodedovo International Airport",
    "city": "Moscow",
    "country": "Russia",
    "lat": 55.40879822,
    "lng": 37.90629959
  },
  {
    "code": "KZN",
    "name": "Kazan International Airport",
    "city": "Kazan",
    "country": "Russia",
    "lat": 55.60620117,
    "lng": 49.27870178
  },
  {
    "code": "GRU",
    "name": "Guarulhos - Governador André Franco Montoro International Airport",
    "city": "Sao Paulo",
    "country": "Brazil",
    "lat": -23.43555641,
    "lng": -46.47305679
  },
  {
    "code": "IST",
    "name": "Istanbul Airport",
    "city": "Istanbul",
    "country": "Turkey",
    "lat": 41.275278,
    "lng": 28.751944
  },
  {
    "code": "CTU",
    "name": "Chengdu Shuangliu International Airport",
    "city": "Chengdu",
    "country": "China",
    "lat": 30.57850075,
    "lng": 103.9469986
  },
  {
    "code": "JZH",
    "name": "Jiuzhai Huanglong Airport",
    "city": "Jiuzhaigou",
    "country": "China",
    "lat": 32.85333333,
    "lng": 103.6822222
  },
  {
    "code": "KBP",
    "name": "Boryspil International Airport",
    "city": "Kiev",
    "country": "Ukraine",
    "lat": 50.34500122,
    "lng": 30.8946991
  },
  {
    "code": "KMG",
    "name": "Kunming Changshui International Airport",
    "city": "Kunming",
    "country": "China",
    "lat": 25.1019444,
    "lng": 102.9291667
  },
  {
    "code": "NKG",
    "name": "Nanjing Lukou Airport",
    "city": "Nanjing",
    "country": "China",
    "lat": 31.74200058,
    "lng": 118.8619995
  },
  {
    "code": "CGK",
    "name": "Soekarno-Hatta International Airport",
    "city": "Jakarta",
    "country": "Indonesia",
    "lat": -6.12556982,
    "lng": 106.6559982
  },
  {
    "code": "JOG",
    "name": "Adi Sutjipto International Airport",
    "city": "Yogyakarta",
    "country": "Indonesia",
    "lat": -7.788179874,
    "lng": 110.4319992
  },
  {
    "code": "PHL",
    "name": "Philadelphia International Airport",
    "city": "Philadelphia",
    "country": "United States",
    "lat": 39.87189865,
    "lng": -75.2410965
  },
  {
    "code": "PHX",
    "name": "Phoenix Sky Harbor International Airport",
    "city": "Phoenix",
    "country": "United States",
    "lat": 33.43429947,
    "lng": -112.012001
  },
  {
    "code": "LZY",
    "name": "Nyingchi Airport",
    "city": "Nyingchi",
    "country": "China",
    "lat": 29.30330086,
    "lng": 94.33529663
  },
  {
    "code": "GXF",
    "name": "Sayun International Airport",
    "city": "Sayun Intl",
    "country": "Yemen",
    "lat": 15.96609974,
    "lng": 48.78829956
  },
  {
    "code": "SAH",
    "name": "Sana'a International Airport",
    "city": "Sanaa",
    "country": "Yemen",
    "lat": 15.47630024,
    "lng": 44.21969986
  },
  {
    "code": "SOU",
    "name": "Southampton Airport",
    "city": "Southampton",
    "country": "United Kingdom",
    "lat": 50.95029831,
    "lng": -1.35679996
  },
  {
    "code": "ASP",
    "name": "Alice Springs Airport",
    "city": "Alice Springs",
    "country": "Australia",
    "lat": -23.80669975,
    "lng": 133.9019928
  },
  {
    "code": "MEL",
    "name": "Melbourne International Airport",
    "city": "Melbourne",
    "country": "Australia",
    "lat": -37.673302,
    "lng": 144.843002
  },
  {
    "code": "DAC",
    "name": "Hazrat Shahjalal International Airport",
    "city": "Dhaka",
    "country": "Bangladesh",
    "lat": 23.843347,
    "lng": 90.397783
  },
  {
    "code": "KTM",
    "name": "Tribhuvan International Airport",
    "city": "Kathmandu",
    "country": "Nepal",
    "lat": 27.6966,
    "lng": 85.3591
  },
  {
    "code": "SFO",
    "name": "San Francisco International Airport",
    "city": "San Francisco",
    "country": "United States",
    "lat": 37.61899948,
    "lng": -122.375
  },
  {
    "code": "RDD",
    "name": "Redding Municipal Airport",
    "city": "Redding",
    "country": "United States",
    "lat": 40.50899887,
    "lng": -122.2929993
  },
  {
    "code": "MSN",
    "name": "Dane County Regional Truax Field",
    "city": "Madison",
    "country": "United States",
    "lat": 43.13990021,
    "lng": -89.33750153
  },
  {
    "code": "ORD",
    "name": "Chicago O'Hare International Airport",
    "city": "Chicago",
    "country": "United States",
    "lat": 41.9786,
    "lng": -87.9048
  },
  {
    "code": "HFE",
    "name": "Hefei Luogang International Airport",
    "city": "Hefei",
    "country": "China",
    "lat": 31.78000069,
    "lng": 117.2979965
  },
  {
    "code": "TOS",
    "name": "Tromsø Airport,",
    "city": "Tromso",
    "country": "Norway",
    "lat": 69.6832962,
    "lng": 18.91889954
  },
  {
    "code": "ALC",
    "name": "Alicante International Airport",
    "city": "Alicante",
    "country": "Spain",
    "lat": 38.28219986,
    "lng": -0.558156013
  },
  {
    "code": "DTW",
    "name": "Detroit Metropolitan Wayne County Airport",
    "city": "Detroit",
    "country": "United States",
    "lat": 42.21239853,
    "lng": -83.35340118
  },
  {
    "code": "OMS",
    "name": "Omsk Central Airport",
    "city": "Omsk",
    "country": "Russia",
    "lat": 54.96699905,
    "lng": 73.3105011
  },
  {
    "code": "GYD",
    "name": "Heydar Aliyev International Airport",
    "city": "Baku",
    "country": "Azerbaijan",
    "lat": 40.46749878,
    "lng": 50.04669952
  },
  {
    "code": "SJW",
    "name": "Shijiazhuang Daguocun International Airport",
    "city": "Shijiazhuang",
    "country": "China",
    "lat": 38.28070068,
    "lng": 114.6969986
  },
  {
    "code": "LJG",
    "name": "Lijiang Airport",
    "city": "Lijiang",
    "country": "China",
    "lat": 26.68000031,
    "lng": 100.2460022
  },
  {
    "code": "ZRH",
    "name": "Zürich Airport",
    "city": "Zurich",
    "country": "Switzerland",
    "lat": 47.464699,
    "lng": 8.54917
  },
  {
    "code": "MAO",
    "name": "Eduardo Gomes International Airport",
    "city": "Manaus",
    "country": "Brazil",
    "lat": -3.038609982,
    "lng": -60.04970169
  },
  {
    "code": "MSY",
    "name": "Louis Armstrong New Orleans International Airport",
    "city": "New Orleans",
    "country": "United States",
    "lat": 29.99340057,
    "lng": -90.25800323
  },
  {
    "code": "CSX",
    "name": "Changsha Huanghua International Airport",
    "city": "Changcha",
    "country": "China",
    "lat": 28.18919945,
    "lng": 113.2200012
  },
  {
    "code": "DWC",
    "name": "Al Maktoum International Airport",
    "city": "Dubai",
    "country": "United Arab Emirates",
    "lat": 24.896356,
    "lng": 55.161389
  },
  {
    "code": "KRT",
    "name": "Khartoum International Airport",
    "city": "Khartoum",
    "country": "Sudan",
    "lat": 15.58950043,
    "lng": 32.55319977
  },
  {
    "code": "SZG",
    "name": "Salzburg Airport",
    "city": "Salzburg",
    "country": "Austria",
    "lat": 47.79330063,
    "lng": 13.00430012
  },
  {
    "code": "NRT",
    "name": "Narita International Airport",
    "city": "Tokyo",
    "country": "Japan",
    "lat": 35.76470184,
    "lng": 140.3860016
  },
  {
    "code": "DAU",
    "name": "Daru Airport",
    "city": "Daru",
    "country": "Papua New Guinea",
    "lat": -9.086759567,
    "lng": 143.2079926
  },
  {
    "code": "POM",
    "name": "Port Moresby Jacksons International Airport",
    "city": "Port Moresby",
    "country": "Papua New Guinea",
    "lat": -9.443380356,
    "lng": 147.2200012
  },
  {
    "code": "LAX",
    "name": "Los Angeles International Airport",
    "city": "Los Angeles",
    "country": "United States",
    "lat": 33.94250107,
    "lng": -118.4079971
  },
  {
    "code": "GDL",
    "name": "Don Miguel Hidalgo Y Costilla International Airport",
    "city": "Guadalajara",
    "country": "Mexico",
    "lat": 20.52179909,
    "lng": -103.310997
  },
  {
    "code": "LPB",
    "name": "El Alto International Airport",
    "city": "La Paz",
    "country": "Bolivia",
    "lat": -16.51329994,
    "lng": -68.19229889
  },
  {
    "code": "CBB",
    "name": "Jorge Wilsterman International Airport",
    "city": "Cochabamba",
    "country": "Bolivia",
    "lat": -17.42110062,
    "lng": -66.17710114
  },
  {
    "code": "AUH",
    "name": "Abu Dhabi International Airport",
    "city": "Abu Dhabi",
    "country": "United Arab Emirates",
    "lat": 24.43300056,
    "lng": 54.65110016
  },
  {
    "code": "MAA",
    "name": "Chennai International Airport",
    "city": "Madras",
    "country": "India",
    "lat": 12.99000549,
    "lng": 80.16929626
  },
  {
    "code": "VRA",
    "name": "Juan Gualberto Gomez International Airport",
    "city": "Varadero",
    "country": "Cuba",
    "lat": 23.03440094,
    "lng": -81.43530273
  },
  {
    "code": "PSA",
    "name": "Pisa International Airport",
    "city": "Pisa",
    "country": "Italy",
    "lat": 43.683899,
    "lng": 10.3927
  },
  {
    "code": "ORY",
    "name": "Paris-Orly Airport",
    "city": "Paris",
    "country": "France",
    "lat": 48.7233333,
    "lng": 2.3794444
  },
  {
    "code": "RMF",
    "name": "Marsa Alam International Airport",
    "city": "Marsa Alam",
    "country": "Egypt",
    "lat": 25.5571003,
    "lng": 34.58369827
  },
  {
    "code": "CAI",
    "name": "Cairo International Airport",
    "city": "Cairo",
    "country": "Egypt",
    "lat": 30.12190056,
    "lng": 31.40559959
  },
  {
    "code": "NOJ",
    "name": "Noyabrsk Airport",
    "city": "Noyabrsk",
    "country": "Russia",
    "lat": 63.18330002,
    "lng": 75.26999664
  },
  {
    "code": "UFA",
    "name": "Ufa International Airport",
    "city": "Ufa",
    "country": "Russia",
    "lat": 54.55749893,
    "lng": 55.87440109
  },
  {
    "code": "MHH",
    "name": "Leonard M Thompson International Airport",
    "city": "Marsh Harbor",
    "country": "Bahamas",
    "lat": 26.5114,
    "lng": -77.083503
  },
  {
    "code": "FLL",
    "name": "Fort Lauderdale Hollywood International Airport",
    "city": "Fort Lauderdale",
    "country": "United States",
    "lat": 26.072599,
    "lng": -80.152702
  },
  {
    "code": "BKK",
    "name": "Suvarnabhumi Airport",
    "city": "Bangkok",
    "country": "Thailand",
    "lat": 13.68109989,
    "lng": 100.7470016
  },
  {
    "code": "ARN",
    "name": "Stockholm-Arlanda Airport",
    "city": "Stockholm",
    "country": "Sweden",
    "lat": 59.65190125,
    "lng": 17.91860008
  },
  {
    "code": "SVO",
    "name": "Sheremetyevo International Airport",
    "city": "Moscow",
    "country": "Russia",
    "lat": 55.972599,
    "lng": 37.4146
  },
  {
    "code": "GMP",
    "name": "Gimpo International Airport",
    "city": "Seoul",
    "country": "South Korea",
    "lat": 37.5583,
    "lng": 126.791
  },
  {
    "code": "KWJ",
    "name": "Gwangju Airport",
    "city": "Kwangju",
    "country": "South Korea",
    "lat": 35.123173,
    "lng": 126.805444
  },
  {
    "code": "ICN",
    "name": "Incheon International Airport",
    "city": "Seoul",
    "country": "South Korea",
    "lat": 37.46910095,
    "lng": 126.4509964
  },
  {
    "code": "NGB",
    "name": "Ningbo Lishe International Airport",
    "city": "Ninbo",
    "country": "China",
    "lat": 29.82670021,
    "lng": 121.461998
  },
  {
    "code": "BDL",
    "name": "Bradley International Airport",
    "city": "Windsor Locks",
    "country": "United States",
    "lat": 41.93889999,
    "lng": -72.68319702
  },
  {
    "code": "DLC",
    "name": "Zhoushuizi Airport",
    "city": "Dalian",
    "country": "China",
    "lat": 38.96569824,
    "lng": 121.5390015
  },
  {
    "code": "HBE",
    "name": "Borg El Arab International Airport",
    "city": "Alexandria",
    "country": "Egypt",
    "lat": 30.91769981,
    "lng": 29.69639969
  },
  {
    "code": "TPE",
    "name": "Taiwan Taoyuan International Airport",
    "city": "Taipei",
    "country": "Taiwan",
    "lat": 25.0777,
    "lng": 121.233002
  },
  {
    "code": "TRD",
    "name": "Trondheim Airport Værnes",
    "city": "Trondheim",
    "country": "Norway",
    "lat": 63.4578018,
    "lng": 10.9239998
  },
  {
    "code": "TRF",
    "name": "Sandefjord Airport, Torp",
    "city": "Sandefjord",
    "country": "Norway",
    "lat": 59.18669891,
    "lng": 10.25860024
  },
  {
    "code": "PIA",
    "name": "General Wayne A. Downing Peoria International Airport",
    "city": "Peoria",
    "country": "United States",
    "lat": 40.66419983,
    "lng": -89.69329834
  },
  {
    "code": "EDI",
    "name": "Edinburgh Airport",
    "city": "Edinburgh",
    "country": "United Kingdom",
    "lat": 55.95000076,
    "lng": -3.372499943
  },
  {
    "code": "MCT",
    "name": "Muscat International Airport",
    "city": "Muscat",
    "country": "Oman",
    "lat": 23.59329987,
    "lng": 58.28440094
  },
  {
    "code": "CCU",
    "name": "Netaji Subhash Chandra Bose International Airport",
    "city": "Kolkata",
    "country": "India",
    "lat": 22.65469933,
    "lng": 88.44670105
  },
  {
    "code": "PAT",
    "name": "Lok Nayak Jayaprakash Airport",
    "city": "Patina",
    "country": "India",
    "lat": 25.59129906,
    "lng": 85.08799744
  },
  {
    "code": "REP",
    "name": "Siem Reap International Airport",
    "city": "Siem-reap",
    "country": "Cambodia",
    "lat": 13.41069984,
    "lng": 103.8130035
  },
  {
    "code": "DAY",
    "name": "James M Cox Dayton International Airport",
    "city": "Dayton",
    "country": "United States",
    "lat": 39.90240097,
    "lng": -84.2193985
  },
  {
    "code": "DCA",
    "name": "Ronald Reagan Washington National Airport",
    "city": "Washington",
    "country": "United States",
    "lat": 38.8521,
    "lng": -77.037697
  },
  {
    "code": "LIS",
    "name": "Humberto Delgado Airport (Lisbon Portela Airport)",
    "city": "Lisbon",
    "country": "Portugal",
    "lat": 38.7813,
    "lng": -9.13592
  },
  {
    "code": "SZB",
    "name": "Sultan Abdul Aziz Shah International Airport",
    "city": "Kuala Lumpur",
    "country": "Malaysia",
    "lat": 3.130579948,
    "lng": 101.5490036
  },
  {
    "code": "PEN",
    "name": "Penang International Airport",
    "city": "Penang",
    "country": "Malaysia",
    "lat": 5.297140121,
    "lng": 100.2770004
  },
  {
    "code": "HKG",
    "name": "Hong Kong International Airport",
    "city": "Hong Kong",
    "country": "Hong Kong",
    "lat": 22.308901,
    "lng": 113.915001
  },
  {
    "code": "NGO",
    "name": "Chubu Centrair International Airport",
    "city": "Nagoya",
    "country": "Japan",
    "lat": 34.85839844,
    "lng": 136.8049927
  },
  {
    "code": "IKT",
    "name": "Irkutsk Airport",
    "city": "Irkutsk",
    "country": "Russia",
    "lat": 52.26800156,
    "lng": 104.3889999
  },
  {
    "code": "UKX",
    "name": "Ust-Kut Airport",
    "city": "Ust-Kut",
    "country": "Russia",
    "lat": 56.8567009,
    "lng": 105.7300034
  },
  {
    "code": "SID",
    "name": "Amílcar Cabral International Airport",
    "city": "Amilcar Cabral",
    "country": "Cape Verde",
    "lat": 16.7414,
    "lng": -22.9494
  },
  {
    "code": "SHA",
    "name": "Shanghai Hongqiao International Airport",
    "city": "Shanghai",
    "country": "China",
    "lat": 31.19790077,
    "lng": 121.3359985
  },
  {
    "code": "NNG",
    "name": "Nanning Wuxu Airport",
    "city": "Nanning",
    "country": "China",
    "lat": 22.60829926,
    "lng": 108.1719971
  },
  {
    "code": "MSP",
    "name": "Minneapolis-St Paul International/Wold-Chamberlain Airport",
    "city": "Minneapolis",
    "country": "United States",
    "lat": 44.882,
    "lng": -93.221802
  },
  {
    "code": "CMI",
    "name": "University of Illinois Willard Airport",
    "city": "Champaign",
    "country": "United States",
    "lat": 40.03919983,
    "lng": -88.27809906
  },
  {
    "code": "GRB",
    "name": "Austin Straubel International Airport",
    "city": "Green Bay",
    "country": "United States",
    "lat": 44.48509979,
    "lng": -88.12960052
  },
  {
    "code": "HYD",
    "name": "Rajiv Gandhi International Airport",
    "city": "Hyderabad",
    "country": "India",
    "lat": 17.23131752,
    "lng": 78.42985535
  },
  {
    "code": "DEL",
    "name": "Indira Gandhi International Airport",
    "city": "Delhi",
    "country": "India",
    "lat": 28.5665,
    "lng": 77.103104
  },
  {
    "code": "TIA",
    "name": "Tirana International Airport Mother Teresa",
    "city": "Tirana",
    "country": "Albania",
    "lat": 41.41469955,
    "lng": 19.72060013
  },
  {
    "code": "VLC",
    "name": "Valencia Airport",
    "city": "Valencia",
    "country": "Spain",
    "lat": 39.4893,
    "lng": -0.481625
  },
  {
    "code": "BOD",
    "name": "Bordeaux-Mérignac Airport",
    "city": "Bordeaux",
    "country": "France",
    "lat": 44.82830048,
    "lng": -0.715556026
  },
  {
    "code": "MRS",
    "name": "Marseille Provence Airport",
    "city": "Marseille",
    "country": "France",
    "lat": 43.43927192,
    "lng": 5.221424103
  },
  {
    "code": "ADE",
    "name": "Aden International Airport",
    "city": "Aden",
    "country": "Yemen",
    "lat": 12.8295002,
    "lng": 45.02880096
  },
  {
    "code": "TLC",
    "name": "Licenciado Adolfo Lopez Mateos International Airport",
    "city": "Toluca",
    "country": "Mexico",
    "lat": 19.33709908,
    "lng": -99.56600189
  },
  {
    "code": "CUN",
    "name": "Cancún International Airport",
    "city": "Cancun",
    "country": "Mexico",
    "lat": 21.03650093,
    "lng": -86.87709808
  },
  {
    "code": "WUH",
    "name": "Wuhan Tianhe International Airport",
    "city": "Wuhan",
    "country": "China",
    "lat": 30.7838,
    "lng": 114.208
  },
  {
    "code": "HAM",
    "name": "Hamburg Airport",
    "city": "Hamburg",
    "country": "Germany",
    "lat": 53.63040161,
    "lng": 9.988229752
  },
  {
    "code": "AYT",
    "name": "Antalya International Airport",
    "city": "Antalya",
    "country": "Turkey",
    "lat": 36.898701,
    "lng": 30.800501
  },
  {
    "code": "CIA",
    "name": "Ciampino–G. B. Pastine International Airport",
    "city": "Rome",
    "country": "Italy",
    "lat": 41.7994,
    "lng": 12.5949
  },
  {
    "code": "YYZ",
    "name": "Lester B. Pearson International Airport",
    "city": "Toronto",
    "country": "Canada",
    "lat": 43.67720032,
    "lng": -79.63059998
  },
  {
    "code": "BRU",
    "name": "Brussels Airport",
    "city": "Brussels",
    "country": "Belgium",
    "lat": 50.90140152,
    "lng": 4.48443985
  },
  {
    "code": "CLV",
    "name": "Nelson Ribeiro Guimarães Airport",
    "city": "Caldas Novas",
    "country": "Brazil",
    "lat": -17.72529984,
    "lng": -48.60749817
  },
  {
    "code": "YZS",
    "name": "Coral Harbour Airport",
    "city": "Coral Harbour",
    "country": "Canada",
    "lat": 64.19329834,
    "lng": -83.35939789
  },
  {
    "code": "YUT",
    "name": "Repulse Bay Airport",
    "city": "Repulse Bay",
    "country": "Canada",
    "lat": 66.52140045,
    "lng": -86.22470093
  },
  {
    "code": "YHM",
    "name": "John C. Munro Hamilton International Airport",
    "city": "Hamilton",
    "country": "Canada",
    "lat": 43.17359924,
    "lng": -79.93499756
  },
  {
    "code": "YHZ",
    "name": "Halifax / Stanfield International Airport",
    "city": "Halifax",
    "country": "Canada",
    "lat": 44.88079834,
    "lng": -63.50859833
  },
  {
    "code": "PUS",
    "name": "Gimhae International Airport",
    "city": "Busan",
    "country": "South Korea",
    "lat": 35.17950058,
    "lng": 128.9380035
  },
  {
    "code": "HGU",
    "name": "Mount Hagen Kagamuga Airport",
    "city": "Mount Hagen",
    "country": "Papua New Guinea",
    "lat": -5.826789856,
    "lng": 144.2960052
  },
  {
    "code": "WWK",
    "name": "Wewak International Airport",
    "city": "Wewak",
    "country": "Papua New Guinea",
    "lat": -3.583830118,
    "lng": 143.6690063
  },
  {
    "code": "CGN",
    "name": "Cologne Bonn Airport",
    "city": "Cologne",
    "country": "Germany",
    "lat": 50.86589813,
    "lng": 7.142739773
  },
  {
    "code": "MLA",
    "name": "Malta International Airport",
    "city": "Malta",
    "country": "Malta",
    "lat": 35.857498,
    "lng": 14.4775
  },
  {
    "code": "LIN",
    "name": "Milano Linate Airport",
    "city": "Milan",
    "country": "Italy",
    "lat": 45.445099,
    "lng": 9.27674
  },
  {
    "code": "SCL",
    "name": "Comodoro Arturo Merino Benítez International Airport",
    "city": "Santiago",
    "country": "Chile",
    "lat": -33.39300156,
    "lng": -70.78579712
  },
  {
    "code": "KIN",
    "name": "Norman Manley International Airport",
    "city": "Kingston",
    "country": "Jamaica",
    "lat": 17.93569946,
    "lng": -76.78749847
  },
  {
    "code": "GEO",
    "name": "Cheddi Jagan International Airport",
    "city": "Georgetown",
    "country": "Guyana",
    "lat": 6.498549938,
    "lng": -58.2541008
  },
  {
    "code": "ALB",
    "name": "Albany International Airport",
    "city": "Albany",
    "country": "United States",
    "lat": 42.74829865,
    "lng": -73.80169678
  },
  {
    "code": "MSQ",
    "name": "Minsk National Airport",
    "city": "Minsk 2",
    "country": "Belarus",
    "lat": 53.88249969,
    "lng": 28.03070068
  },
  {
    "code": "CRK",
    "name": "Diosdado Macapagal International Airport",
    "city": "Angeles City",
    "country": "Philippines",
    "lat": 15.186,
    "lng": 120.559998
  },
  {
    "code": "GOM",
    "name": "Goma International Airport",
    "city": "Goma",
    "country": "Congo (Kinshasa)",
    "lat": -1.670809984,
    "lng": 29.2385006
  },
  {
    "code": "BKY",
    "name": "Bukavu Kavumu Airport",
    "city": "Bukavu/kavumu",
    "country": "Congo (Kinshasa)",
    "lat": -2.308979988,
    "lng": 28.80879974
  },
  {
    "code": "AJA",
    "name": "Ajaccio-Napoléon Bonaparte Airport",
    "city": "Ajaccio",
    "country": "France",
    "lat": 41.92359924,
    "lng": 8.802920341
  },
  {
    "code": "OSL",
    "name": "Oslo Lufthavn",
    "city": "Oslo",
    "country": "Norway",
    "lat": 60.121,
    "lng": 11.0502
  },
  {
    "code": "SAN",
    "name": "San Diego International Airport",
    "city": "San Diego",
    "country": "United States",
    "lat": 32.73360062,
    "lng": -117.1900024
  },
  {
    "code": "LPQ",
    "name": "Luang Phabang International Airport",
    "city": "Luang Prabang",
    "country": "Laos",
    "lat": 19.89730072,
    "lng": 102.1610031
  },
  {
    "code": "KIX",
    "name": "Kansai International Airport",
    "city": "Osaka",
    "country": "Japan",
    "lat": 34.4272995,
    "lng": 135.2440033
  },
  {
    "code": "ERI",
    "name": "Erie International Tom Ridge Field",
    "city": "Erie",
    "country": "United States",
    "lat": 42.08312701,
    "lng": -80.17386675
  },
  {
    "code": "KHH",
    "name": "Kaohsiung International Airport",
    "city": "Kaohsiung",
    "country": "Taiwan",
    "lat": 22.57710075,
    "lng": 120.3499985
  },
  {
    "code": "EZE",
    "name": "Ministro Pistarini International Airport",
    "city": "Buenos Aires",
    "country": "Argentina",
    "lat": -34.8222,
    "lng": -58.5358
  },
  {
    "code": "LSE",
    "name": "La Crosse Municipal Airport",
    "city": "La Crosse",
    "country": "United States",
    "lat": 43.879002,
    "lng": -91.256699
  },
  {
    "code": "BOG",
    "name": "El Dorado International Airport",
    "city": "Bogota",
    "country": "Colombia",
    "lat": 4.70159,
    "lng": -74.1469
  },
  {
    "code": "CLO",
    "name": "Alfonso Bonilla Aragon International Airport",
    "city": "Cali",
    "country": "Colombia",
    "lat": 3.54322,
    "lng": -76.3816
  },
  {
    "code": "ANU",
    "name": "V.C. Bird International Airport",
    "city": "Antigua",
    "country": "Antigua and Barbuda",
    "lat": 17.1367,
    "lng": -61.792702
  },
  {
    "code": "BLA",
    "name": "General José Antonio Anzoategui International Airport",
    "city": "Barcelona",
    "country": "Venezuela",
    "lat": 10.111111,
    "lng": -64.692222
  },
  {
    "code": "VLN",
    "name": "Arturo Michelena International Airport",
    "city": "Valencia",
    "country": "Venezuela",
    "lat": 10.14973259,
    "lng": -67.92839813
  },
  {
    "code": "SEA",
    "name": "Seattle Tacoma International Airport",
    "city": "Seattle",
    "country": "United States",
    "lat": 47.449001,
    "lng": -122.308998
  },
  {
    "code": "TGM",
    "name": "Transilvania Târgu Mureş International Airport",
    "city": "Tirgu Mures",
    "country": "Romania",
    "lat": 46.46770096,
    "lng": 24.41250038
  },
  {
    "code": "OTP",
    "name": "Henri Coandă International Airport",
    "city": "Bucharest",
    "country": "Romania",
    "lat": 44.5711111,
    "lng": 26.085
  },
  {
    "code": "PER",
    "name": "Perth International Airport",
    "city": "Perth",
    "country": "Australia",
    "lat": -31.94029999,
    "lng": 115.9670029
  },
  {
    "code": "PHE",
    "name": "Port Hedland International Airport",
    "city": "Port Hedland",
    "country": "Australia",
    "lat": -20.37779999,
    "lng": 118.6259995
  },
  {
    "code": "VRN",
    "name": "Verona Villafranca Airport",
    "city": "Villafranca",
    "country": "Italy",
    "lat": 45.395699,
    "lng": 10.8885
  },
  {
    "code": "BTS",
    "name": "M. R. Štefánik Airport",
    "city": "Bratislava",
    "country": "Slovakia",
    "lat": 48.17020035,
    "lng": 17.21269989
  },
  {
    "code": "OPO",
    "name": "Francisco de Sá Carneiro Airport",
    "city": "Porto",
    "country": "Portugal",
    "lat": 41.24810028,
    "lng": -8.681389809
  },
  {
    "code": "AGP",
    "name": "Málaga Airport",
    "city": "Malaga",
    "country": "Spain",
    "lat": 36.67490005,
    "lng": -4.499110222
  },
  {
    "code": "YVR",
    "name": "Vancouver International Airport",
    "city": "Vancouver",
    "country": "Canada",
    "lat": 49.19390106,
    "lng": -123.1839981
  },
  {
    "code": "MDC",
    "name": "Sam Ratulangi Airport",
    "city": "Manado",
    "country": "Indonesia",
    "lat": 1.54926002,
    "lng": 124.9260025
  },
  {
    "code": "MAG",
    "name": "Madang Airport",
    "city": "Madang",
    "country": "Papua New Guinea",
    "lat": -5.207079887,
    "lng": 145.7890015
  },
  {
    "code": "FAO",
    "name": "Faro Airport",
    "city": "Faro",
    "country": "Portugal",
    "lat": 37.01440048,
    "lng": -7.965909958
  },
  {
    "code": "SIP",
    "name": "Simferopol International Airport",
    "city": "Simferopol",
    "country": "Ukraine",
    "lat": 45.05220032,
    "lng": 33.97510147
  },
  {
    "code": "ROV",
    "name": "Platov International Airport",
    "city": "Rostov",
    "country": "Russia",
    "lat": 47.493888,
    "lng": 39.924722
  },
  {
    "code": "LHR",
    "name": "London Heathrow Airport",
    "city": "London",
    "country": "United Kingdom",
    "lat": 51.4706,
    "lng": -0.461941
  },
  {
    "code": "CLY",
    "name": "Calvi-Sainte-Catherine Airport",
    "city": "Calvi",
    "country": "France",
    "lat": 42.5244444,
    "lng": 8.7930556
  },
  {
    "code": "LED",
    "name": "Pulkovo Airport",
    "city": "St. Petersburg",
    "country": "Russia",
    "lat": 59.8003006,
    "lng": 30.26250076
  },
  {
    "code": "YKS",
    "name": "Yakutsk Airport",
    "city": "Yakutsk",
    "country": "Russia",
    "lat": 62.09329987,
    "lng": 129.7709961
  },
  {
    "code": "YQB",
    "name": "Quebec Jean Lesage International Airport",
    "city": "Quebec",
    "country": "Canada",
    "lat": 46.7911,
    "lng": -71.393303
  },
  {
    "code": "YGR",
    "name": "Îles-de-la-Madeleine Airport",
    "city": "Iles De La Madeleine",
    "country": "Canada",
    "lat": 47.42470169,
    "lng": -61.77809906
  },
  {
    "code": "CAG",
    "name": "Cagliari Elmas Airport",
    "city": "Cagliari",
    "country": "Italy",
    "lat": 39.251499,
    "lng": 9.05428
  },
  {
    "code": "SXF",
    "name": "Berlin-Schönefeld Airport",
    "city": "Berlin",
    "country": "Germany",
    "lat": 52.380001,
    "lng": 13.5225
  },
  {
    "code": "TAI",
    "name": "Ta'izz International Airport",
    "city": "Taiz",
    "country": "Yemen",
    "lat": 13.68599987,
    "lng": 44.13909912
  },
  {
    "code": "RUH",
    "name": "King Khaled International Airport",
    "city": "Riyadh",
    "country": "Saudi Arabia",
    "lat": 24.95759964,
    "lng": 46.69879913
  },
  {
    "code": "AMM",
    "name": "Queen Alia International Airport",
    "city": "Amman",
    "country": "Jordan",
    "lat": 31.72260094,
    "lng": 35.99319839
  },
  {
    "code": "JDH",
    "name": "Jodhpur Airport",
    "city": "Jodhpur",
    "country": "India",
    "lat": 26.25110054,
    "lng": 73.04889679
  },
  {
    "code": "BOM",
    "name": "Chhatrapati Shivaji International Airport",
    "city": "Mumbai",
    "country": "India",
    "lat": 19.08869934,
    "lng": 72.86789703
  },
  {
    "code": "BUR",
    "name": "Bob Hope Airport",
    "city": "Burbank",
    "country": "United States",
    "lat": 34.20069885,
    "lng": -118.3590012
  },
  {
    "code": "CGO",
    "name": "Zhengzhou Xinzheng International Airport",
    "city": "Zhengzhou",
    "country": "China",
    "lat": 34.5196991,
    "lng": 113.8410034
  },
  {
    "code": "RIX",
    "name": "Riga International Airport",
    "city": "Riga",
    "country": "Latvia",
    "lat": 56.92359924,
    "lng": 23.97109985
  },
  {
    "code": "BDO",
    "name": "Husein Sastranegara International Airport",
    "city": "Bandung",
    "country": "Indonesia",
    "lat": -6.900629997,
    "lng": 107.5759964
  },
  {
    "code": "KUL",
    "name": "Kuala Lumpur International Airport",
    "city": "Kuala Lumpur",
    "country": "Malaysia",
    "lat": 2.745579958,
    "lng": 101.7099991
  },
  {
    "code": "LBB",
    "name": "Lubbock Preston Smith International Airport",
    "city": "Lubbock",
    "country": "United States",
    "lat": 33.663601,
    "lng": -101.822998
  },
  {
    "code": "DAL",
    "name": "Dallas Love Field",
    "city": "Dallas",
    "country": "United States",
    "lat": 32.847099,
    "lng": -96.851799
  },
  {
    "code": "YNJ",
    "name": "Yanji Chaoyangchuan Airport",
    "city": "Yanji",
    "country": "China",
    "lat": 42.88280106,
    "lng": 129.451004
  },
  {
    "code": "LBA",
    "name": "Leeds Bradford Airport",
    "city": "Leeds",
    "country": "United Kingdom",
    "lat": 53.86589813,
    "lng": -1.660570025
  },
  {
    "code": "ZQW",
    "name": "Zweibrücken Airport",
    "city": "Zweibruecken",
    "country": "Germany",
    "lat": 49.2094,
    "lng": 7.40056
  },
  {
    "code": "PMI",
    "name": "Palma De Mallorca Airport",
    "city": "Palma de Mallorca",
    "country": "Spain",
    "lat": 39.55170059,
    "lng": 2.738810062
  },
  {
    "code": "HER",
    "name": "Heraklion International Nikos Kazantzakis Airport",
    "city": "Heraklion",
    "country": "Greece",
    "lat": 35.33969879,
    "lng": 25.18029976
  },
  {
    "code": "JIK",
    "name": "Ikaria Airport",
    "city": "Ikaria",
    "country": "Greece",
    "lat": 37.68270111,
    "lng": 26.3470993
  },
  {
    "code": "JKH",
    "name": "Chios Island National Airport",
    "city": "Chios",
    "country": "Greece",
    "lat": 38.34320068,
    "lng": 26.1406002
  },
  {
    "code": "ATH",
    "name": "Eleftherios Venizelos International Airport",
    "city": "Athens",
    "country": "Greece",
    "lat": 37.93640137,
    "lng": 23.94449997
  },
  {
    "code": "PDX",
    "name": "Portland International Airport",
    "city": "Portland",
    "country": "United States",
    "lat": 45.58869934,
    "lng": -122.5979996
  },
  {
    "code": "CFU",
    "name": "Ioannis Kapodistrias International Airport",
    "city": "Kerkyra/corfu",
    "country": "Greece",
    "lat": 39.60189819,
    "lng": 19.9116993
  },
  {
    "code": "KWI",
    "name": "Kuwait International Airport",
    "city": "Kuwait",
    "country": "Kuwait",
    "lat": 29.22660065,
    "lng": 47.96889877
  },
  {
    "code": "DEN",
    "name": "Denver International Airport",
    "city": "Denver",
    "country": "United States",
    "lat": 39.86169815,
    "lng": -104.6729965
  },
  {
    "code": "NUX",
    "name": "Novy Urengoy Airport",
    "city": "Novy Urengoy",
    "country": "Russia",
    "lat": 66.06939697,
    "lng": 76.52030182
  },
  {
    "code": "VKO",
    "name": "Vnukovo International Airport",
    "city": "Moscow",
    "country": "Russia",
    "lat": 55.59149933,
    "lng": 37.26150131
  },
  {
    "code": "FLN",
    "name": "Hercílio Luz International Airport",
    "city": "Florianopolis",
    "country": "Brazil",
    "lat": -27.67027855,
    "lng": -48.55250168
  },
  {
    "code": "XAP",
    "name": "Serafin Enoss Bertaso Airport",
    "city": "Chapeco",
    "country": "Brazil",
    "lat": -27.13419914,
    "lng": -52.65660095
  },
  {
    "code": "BDS",
    "name": "Brindisi - Salento Airport",
    "city": "Brindisi",
    "country": "Italy",
    "lat": 40.6576,
    "lng": 17.947001
  },
  {
    "code": "BVA",
    "name": "Paris Beauvais Tillé Airport",
    "city": "Beauvais",
    "country": "France",
    "lat": 49.45439911,
    "lng": 2.112780094
  },
  {
    "code": "SYX",
    "name": "Sanya Phoenix International Airport",
    "city": "Sanya",
    "country": "China",
    "lat": 18.30290031,
    "lng": 109.4120026
  },
  {
    "code": "TPA",
    "name": "Tampa International Airport",
    "city": "Tampa",
    "country": "United States",
    "lat": 27.97550011,
    "lng": -82.53320313
  },
  {
    "code": "PTY",
    "name": "Tocumen International Airport",
    "city": "Panama City",
    "country": "Panama",
    "lat": 9.071359634,
    "lng": -79.38349915
  },
  {
    "code": "KGL",
    "name": "Kigali International Airport",
    "city": "Kigali",
    "country": "Rwanda",
    "lat": -1.96863,
    "lng": 30.1395
  },
  {
    "code": "PQC",
    "name": "Phu Quoc International Airport",
    "city": "Phuquoc",
    "country": "Vietnam",
    "lat": 10.1698,
    "lng": 103.9931
  },
  {
    "code": "VCA",
    "name": "Can Tho International Airport",
    "city": "Can Tho",
    "country": "Vietnam",
    "lat": 10.08510017,
    "lng": 105.711998
  },
  {
    "code": "WAW",
    "name": "Warsaw Chopin Airport",
    "city": "Warsaw",
    "country": "Poland",
    "lat": 52.16569901,
    "lng": 20.96710014
  },
  {
    "code": "VIE",
    "name": "Vienna International Airport",
    "city": "Vienna",
    "country": "Austria",
    "lat": 48.11029816,
    "lng": 16.56970024
  },
  {
    "code": "BSC",
    "name": "José Celestino Mutis Airport",
    "city": "Bahia Solano",
    "country": "Colombia",
    "lat": 6.20292,
    "lng": -77.3947
  },
  {
    "code": "EOH",
    "name": "Enrique Olaya Herrera Airport",
    "city": "Medellin",
    "country": "Colombia",
    "lat": 6.220549,
    "lng": -75.590582
  },
  {
    "code": "BVB",
    "name": "Atlas Brasil Cantanhede Airport",
    "city": "Boa Vista",
    "country": "Brazil",
    "lat": 2.841388941,
    "lng": -60.6922226
  },
  {
    "code": "CLJ",
    "name": "Cluj-Napoca International Airport",
    "city": "Cluj-napoca",
    "country": "Romania",
    "lat": 46.78519821,
    "lng": 23.68619919
  },
  {
    "code": "ZAZ",
    "name": "Zaragoza Air Base",
    "city": "Zaragoza",
    "country": "Spain",
    "lat": 41.66619873,
    "lng": -1.04155004
  },
  {
    "code": "BSK",
    "name": "Biskra Airport",
    "city": "Biskra",
    "country": "Algeria",
    "lat": 34.79330063,
    "lng": 5.738230228
  },
  {
    "code": "ALG",
    "name": "Houari Boumediene Airport",
    "city": "Algier",
    "country": "Algeria",
    "lat": 36.69100189,
    "lng": 3.215409994
  },
  {
    "code": "RSW",
    "name": "Southwest Florida International Airport",
    "city": "Fort Myers",
    "country": "United States",
    "lat": 26.53619957,
    "lng": -81.75520325
  },
  {
    "code": "NRN",
    "name": "Weeze Airport",
    "city": "Weeze",
    "country": "Germany",
    "lat": 51.60240173,
    "lng": 6.142169952
  },
  {
    "code": "MAD",
    "name": "Adolfo Suárez Madrid–Barajas Airport",
    "city": "Madrid",
    "country": "Spain",
    "lat": 40.471926,
    "lng": -3.56264
  },
  {
    "code": "KOE",
    "name": "El Tari Airport",
    "city": "Kupang",
    "country": "Indonesia",
    "lat": -10.17160034,
    "lng": 123.6709976
  },
  {
    "code": "SUB",
    "name": "Juanda International Airport",
    "city": "Surabaya",
    "country": "Indonesia",
    "lat": -7.379829884,
    "lng": 112.7870026
  },
  {
    "code": "MKE",
    "name": "General Mitchell International Airport",
    "city": "Milwaukee",
    "country": "United States",
    "lat": 42.94720078,
    "lng": -87.89659882
  },
  {
    "code": "LPA",
    "name": "Gran Canaria Airport",
    "city": "Gran Canaria",
    "country": "Spain",
    "lat": 27.93190002,
    "lng": -15.38659954
  },
  {
    "code": "MIG",
    "name": "Mianyang Airport",
    "city": "Mianyang",
    "country": "China",
    "lat": 31.42810059,
    "lng": 104.7409973
  },
  {
    "code": "TUF",
    "name": "Tours-Val-de-Loire Airport",
    "city": "Tours",
    "country": "France",
    "lat": 47.43220139,
    "lng": 0.727605999
  },
  {
    "code": "BWT",
    "name": "Wynyard Airport",
    "city": "Burnie",
    "country": "Australia",
    "lat": -40.99890137,
    "lng": 145.7310028
  },
  {
    "code": "LUX",
    "name": "Luxembourg-Findel International Airport",
    "city": "Luxemburg",
    "country": "Luxembourg",
    "lat": 49.6233333,
    "lng": 6.2044444
  },
  {
    "code": "ELP",
    "name": "El Paso International Airport",
    "city": "El Paso",
    "country": "United States",
    "lat": 31.80719948,
    "lng": -106.3779984
  },
  {
    "code": "DJE",
    "name": "Djerba Zarzis International Airport",
    "city": "Djerba",
    "country": "Tunisia",
    "lat": 33.875,
    "lng": 10.7755003
  },
  {
    "code": "TUN",
    "name": "Tunis Carthage International Airport",
    "city": "Tunis",
    "country": "Tunisia",
    "lat": 36.85100174,
    "lng": 10.22719955
  },
  {
    "code": "BRN",
    "name": "Bern Belp Airport",
    "city": "Bern",
    "country": "Switzerland",
    "lat": 46.91410065,
    "lng": 7.497149944
  },
  {
    "code": "YQZ",
    "name": "Quesnel Airport",
    "city": "Quesnel",
    "country": "Canada",
    "lat": 53.02610016,
    "lng": -122.5100021
  },
  {
    "code": "YWL",
    "name": "Williams Lake Airport",
    "city": "Williams Lake",
    "country": "Canada",
    "lat": 52.18310165,
    "lng": -122.0540009
  },
  {
    "code": "BLR",
    "name": "Kempegowda International Airport",
    "city": "Bangalore",
    "country": "India",
    "lat": 13.1979,
    "lng": 77.706299
  },
  {
    "code": "VTZ",
    "name": "Vishakhapatnam Airport",
    "city": "Vishakhapatnam",
    "country": "India",
    "lat": 17.72120094,
    "lng": 83.22450256
  },
  {
    "code": "JOI",
    "name": "Lauro Carneiro de Loyola Airport",
    "city": "Joinville",
    "country": "Brazil",
    "lat": -26.22450066,
    "lng": -48.79740143
  },
  {
    "code": "VCP",
    "name": "Viracopos International Airport",
    "city": "Campinas",
    "country": "Brazil",
    "lat": -23.00740051,
    "lng": -47.1344986
  },
  {
    "code": "DPL",
    "name": "Dipolog Airport",
    "city": "Dipolog",
    "country": "Philippines",
    "lat": 8.601983499,
    "lng": 123.3418751
  },
  {
    "code": "CEB",
    "name": "Mactan Cebu International Airport",
    "city": "Cebu",
    "country": "Philippines",
    "lat": 10.30749989,
    "lng": 123.9789963
  },
  {
    "code": "LOS",
    "name": "Murtala Muhammed International Airport",
    "city": "Lagos",
    "country": "Nigeria",
    "lat": 6.577370167,
    "lng": 3.321160078
  },
  {
    "code": "LFW",
    "name": "Lomé-Tokoin Airport",
    "city": "Lome",
    "country": "Togo",
    "lat": 6.165609837,
    "lng": 1.254510045
  },
  {
    "code": "CKG",
    "name": "Chongqing Jiangbei International Airport",
    "city": "Chongqing",
    "country": "China",
    "lat": 29.71920013,
    "lng": 106.6419983
  },
  {
    "code": "BUD",
    "name": "Budapest Liszt Ferenc International Airport",
    "city": "Budapest",
    "country": "Hungary",
    "lat": 47.42976,
    "lng": 19.261093
  },
  {
    "code": "BGY",
    "name": "Il Caravaggio International Airport",
    "city": "Bergamo",
    "country": "Italy",
    "lat": 45.673901,
    "lng": 9.70417
  },
  {
    "code": "JGN",
    "name": "Jiayuguan Airport",
    "city": "Jiayuguan",
    "country": "China",
    "lat": 39.856899,
    "lng": 98.3414
  },
  {
    "code": "CNS",
    "name": "Cairns International Airport",
    "city": "Cairns",
    "country": "Australia",
    "lat": -16.88579941,
    "lng": 145.7550049
  },
  {
    "code": "EUG",
    "name": "Mahlon Sweet Field",
    "city": "Eugene",
    "country": "United States",
    "lat": 44.12459946,
    "lng": -123.211998
  },
  {
    "code": "YEK",
    "name": "Arviat Airport",
    "city": "Eskimo Point",
    "country": "Canada",
    "lat": 61.09420013,
    "lng": -94.07080078
  },
  {
    "code": "YRT",
    "name": "Rankin Inlet Airport",
    "city": "Rankin Inlet",
    "country": "Canada",
    "lat": 62.81140137,
    "lng": -92.11579895
  },
  {
    "code": "SAW",
    "name": "Sabiha Gökçen International Airport",
    "city": "Istanbul",
    "country": "Turkey",
    "lat": 40.89860153,
    "lng": 29.30920029
  },
  {
    "code": "HAN",
    "name": "Noi Bai International Airport",
    "city": "Hanoi",
    "country": "Vietnam",
    "lat": 21.22120094,
    "lng": 105.8069992
  },
  {
    "code": "UIH",
    "name": "Phu Cat Airport",
    "city": "Phucat",
    "country": "Vietnam",
    "lat": 13.955,
    "lng": 109.042
  },
  {
    "code": "NAP",
    "name": "Naples International Airport",
    "city": "Naples",
    "country": "Italy",
    "lat": 40.886002,
    "lng": 14.2908
  },
  {
    "code": "PMO",
    "name": "Falcone–Borsellino Airport",
    "city": "Palermo",
    "country": "Italy",
    "lat": 38.175999,
    "lng": 13.091
  },
  {
    "code": "KRR",
    "name": "Krasnodar Pashkovsky International Airport",
    "city": "Krasnodar",
    "country": "Russia",
    "lat": 45.03469849,
    "lng": 39.17050171
  },
  {
    "code": "GOI",
    "name": "Dabolim Airport",
    "city": "Goa",
    "country": "India",
    "lat": 15.38080025,
    "lng": 73.83139801
  },
  {
    "code": "HET",
    "name": "Baita International Airport",
    "city": "Hohhot",
    "country": "China",
    "lat": 40.851398,
    "lng": 111.823997
  },
  {
    "code": "NZH",
    "name": "Manzhouli Xijiao Airport",
    "city": "Manzhouli",
    "country": "China",
    "lat": 49.566667,
    "lng": 117.33
  },
  {
    "code": "BAH",
    "name": "Bahrain International Airport",
    "city": "Bahrain",
    "country": "Bahrain",
    "lat": 26.27079964,
    "lng": 50.63359833
  },
  {
    "code": "BEG",
    "name": "Belgrade Nikola Tesla Airport",
    "city": "Belgrade",
    "country": "Serbia",
    "lat": 44.81840134,
    "lng": 20.3090992
  },
  {
    "code": "WNZ",
    "name": "Wenzhou Longwan International Airport",
    "city": "Wenzhou",
    "country": "China",
    "lat": 27.912201,
    "lng": 120.851997
  },
  {
    "code": "TLV",
    "name": "Ben Gurion International Airport",
    "city": "Tel-aviv",
    "country": "Israel",
    "lat": 32.01139832,
    "lng": 34.88669968
  },
  {
    "code": "PRG",
    "name": "Václav Havel Airport Prague",
    "city": "Prague",
    "country": "Czech Republic",
    "lat": 50.1008,
    "lng": 14.26
  },
  {
    "code": "ASU",
    "name": "Silvio Pettirossi International Airport",
    "city": "Asuncion",
    "country": "Paraguay",
    "lat": -25.23999977,
    "lng": -57.52000046
  },
  {
    "code": "MIA",
    "name": "Miami International Airport",
    "city": "Miami",
    "country": "United States",
    "lat": 25.79319954,
    "lng": -80.29060364
  },
  {
    "code": "CTS",
    "name": "New Chitose Airport",
    "city": "Sapporo",
    "country": "Japan",
    "lat": 42.77519989,
    "lng": 141.6920013
  },
  {
    "code": "AXT",
    "name": "Akita Airport",
    "city": "Akita",
    "country": "Japan",
    "lat": 39.61560059,
    "lng": 140.2189941
  },
  {
    "code": "HAJ",
    "name": "Hannover Airport",
    "city": "Hannover",
    "country": "Germany",
    "lat": 52.46110153,
    "lng": 9.685079575
  },
  {
    "code": "HAK",
    "name": "Haikou Meilan International Airport",
    "city": "Haikou",
    "country": "China",
    "lat": 19.93490028,
    "lng": 110.4589996
  },
  {
    "code": "LTN",
    "name": "London Luton Airport",
    "city": "London",
    "country": "United Kingdom",
    "lat": 51.87469864,
    "lng": -0.368333012
  },
  {
    "code": "LGW",
    "name": "London Gatwick Airport",
    "city": "London",
    "country": "United Kingdom",
    "lat": 51.148102,
    "lng": -0.190278
  },
  {
    "code": "PUJ",
    "name": "Punta Cana International Airport",
    "city": "Punta Cana",
    "country": "Dominican Republic",
    "lat": 18.56739998,
    "lng": -68.36340332
  },
  {
    "code": "TJM",
    "name": "Roshchino International Airport",
    "city": "Tyumen",
    "country": "Russia",
    "lat": 57.1896019,
    "lng": 65.32430267
  },
  {
    "code": "FNT",
    "name": "Bishop International Airport",
    "city": "Flint",
    "country": "United States",
    "lat": 42.9654007,
    "lng": -83.74359894
  },
  {
    "code": "MCO",
    "name": "Orlando International Airport",
    "city": "Orlando",
    "country": "United States",
    "lat": 28.42939949,
    "lng": -81.30899811
  },
  {
    "code": "SXM",
    "name": "Princess Juliana International Airport",
    "city": "Philipsburg",
    "country": "Netherlands Antilles",
    "lat": 18.04100037,
    "lng": -63.10889816
  },
  {
    "code": "OGG",
    "name": "Kahului Airport",
    "city": "Kahului",
    "country": "United States",
    "lat": 20.8986,
    "lng": -156.429993
  },
  {
    "code": "TUS",
    "name": "Tucson International Airport",
    "city": "Tucson",
    "country": "United States",
    "lat": 32.11610031,
    "lng": -110.9410019
  },
  {
    "code": "MOB",
    "name": "Mobile Regional Airport",
    "city": "Mobile",
    "country": "United States",
    "lat": 30.69120026,
    "lng": -88.24279785
  },
  {
    "code": "IAH",
    "name": "George Bush Intercontinental Houston Airport",
    "city": "Houston",
    "country": "United States",
    "lat": 29.9843998,
    "lng": -95.34140015
  },
  {
    "code": "LYG",
    "name": "Lianyungang Airport",
    "city": "Lianyungang",
    "country": "China",
    "lat": 34.571667,
    "lng": 118.873611
  },
  {
    "code": "CIF",
    "name": "Chifeng Airport",
    "city": "Chifeng",
    "country": "China",
    "lat": 42.23500061,
    "lng": 118.9079971
  },
  {
    "code": "HRB",
    "name": "Taiping Airport",
    "city": "Harbin",
    "country": "China",
    "lat": 45.62340164,
    "lng": 126.25
  },
  {
    "code": "AMD",
    "name": "Sardar Vallabhbhai Patel International Airport",
    "city": "Ahmedabad",
    "country": "India",
    "lat": 23.07719994,
    "lng": 72.63469696
  },
  {
    "code": "ACV",
    "name": "California Redwood Coast-Humboldt County Airport",
    "city": "Arcata CA",
    "country": "United States",
    "lat": 40.978101,
    "lng": -124.109
  },
  {
    "code": "PQQ",
    "name": "Port Macquarie Airport",
    "city": "Port Macquarie",
    "country": "Australia",
    "lat": -31.43580055,
    "lng": 152.8630066
  },
  {
    "code": "SYD",
    "name": "Sydney Kingsford Smith International Airport",
    "city": "Sydney",
    "country": "Australia",
    "lat": -33.94609833,
    "lng": 151.177002
  },
  {
    "code": "NBO",
    "name": "Jomo Kenyatta International Airport",
    "city": "Nairobi",
    "country": "Kenya",
    "lat": -1.319239974,
    "lng": 36.92779922
  },
  {
    "code": "UVF",
    "name": "Hewanorra International Airport",
    "city": "Hewandorra",
    "country": "Saint Lucia",
    "lat": 13.7332,
    "lng": -60.952599
  },
  {
    "code": "BGI",
    "name": "Sir Grantley Adams International Airport",
    "city": "Bridgetown",
    "country": "Barbados",
    "lat": 13.07460022,
    "lng": -59.49250031
  },
  {
    "code": "ZTH",
    "name": "Zakynthos International Airport \"Dionysios Solomos\"",
    "city": "Zakynthos",
    "country": "Greece",
    "lat": 37.7509,
    "lng": 20.8843
  },
  {
    "code": "BIO",
    "name": "Bilbao Airport",
    "city": "Bilbao",
    "country": "Spain",
    "lat": 43.30110168,
    "lng": -2.910609961
  },
  {
    "code": "KWL",
    "name": "Guilin Liangjiang International Airport",
    "city": "Guilin",
    "country": "China",
    "lat": 25.21809959,
    "lng": 110.0390015
  },
  {
    "code": "AEP",
    "name": "Jorge Newbery Airpark",
    "city": "Buenos Aires",
    "country": "Argentina",
    "lat": -34.5592,
    "lng": -58.4156
  },
  {
    "code": "NQN",
    "name": "Presidente Peron Airport",
    "city": "Neuquen",
    "country": "Argentina",
    "lat": -38.949001,
    "lng": -68.155701
  },
  {
    "code": "SDU",
    "name": "Santos Dumont Airport",
    "city": "Rio De Janeiro",
    "country": "Brazil",
    "lat": -22.91049957,
    "lng": -43.1631012
  },
  {
    "code": "LYS",
    "name": "Lyon Saint-Exupéry Airport",
    "city": "Lyon",
    "country": "France",
    "lat": 45.725556,
    "lng": 5.081111
  },
  {
    "code": "BFS",
    "name": "Belfast International Airport",
    "city": "Belfast",
    "country": "United Kingdom",
    "lat": 54.65750122,
    "lng": -6.215829849
  },
  {
    "code": "LIM",
    "name": "Jorge Chávez International Airport",
    "city": "Lima",
    "country": "Peru",
    "lat": -12.0219,
    "lng": -77.114305
  },
  {
    "code": "KHN",
    "name": "Nanchang Changbei International Airport",
    "city": "Nanchang",
    "country": "China",
    "lat": 28.86499977,
    "lng": 115.9000015
  },
  {
    "code": "PBI",
    "name": "Palm Beach International Airport",
    "city": "West Palm Beach",
    "country": "United States",
    "lat": 26.68320084,
    "lng": -80.09559631
  },
  {
    "code": "YPJ",
    "name": "Aupaluk Airport",
    "city": "Aupaluk",
    "country": "Canada",
    "lat": 59.29669952,
    "lng": -69.59970093
  },
  {
    "code": "YVP",
    "name": "Kuujjuaq Airport",
    "city": "Quujjuaq",
    "country": "Canada",
    "lat": 58.09609985,
    "lng": -68.42690277
  },
  {
    "code": "SKG",
    "name": "Thessaloniki Macedonia International Airport",
    "city": "Thessaloniki",
    "country": "Greece",
    "lat": 40.5196991,
    "lng": 22.97089958
  },
  {
    "code": "NYO",
    "name": "Stockholm Skavsta Airport",
    "city": "Stockholm",
    "country": "Sweden",
    "lat": 58.78860092,
    "lng": 16.91220093
  },
  {
    "code": "ACX",
    "name": "Xingyi Airport",
    "city": "Xingyi",
    "country": "China",
    "lat": 25.08638889,
    "lng": 104.9594444
  },
  {
    "code": "PVG",
    "name": "Shanghai Pudong International Airport",
    "city": "Shanghai",
    "country": "China",
    "lat": 31.14340019,
    "lng": 121.8050003
  },
  {
    "code": "ELQ",
    "name": "Gassim Airport",
    "city": "Gassim",
    "country": "Saudi Arabia",
    "lat": 26.30279922,
    "lng": 43.7743988
  },
  {
    "code": "DMM",
    "name": "King Fahd International Airport",
    "city": "Dammam",
    "country": "Saudi Arabia",
    "lat": 26.47120094,
    "lng": 49.79790115
  },
  {
    "code": "JAN",
    "name": "Jackson-Medgar Wiley Evers International Airport",
    "city": "Jackson",
    "country": "United States",
    "lat": 32.31119919,
    "lng": -90.07589722
  },
  {
    "code": "EAE",
    "name": "Siwo Airport",
    "city": "Sangafa",
    "country": "Vanuatu",
    "lat": -17.09029961,
    "lng": 168.3430023
  },
  {
    "code": "VLI",
    "name": "Bauerfield International Airport",
    "city": "Port-vila",
    "country": "Vanuatu",
    "lat": -17.69930077,
    "lng": 168.3200073
  },
  {
    "code": "SPU",
    "name": "Split Airport",
    "city": "Split",
    "country": "Croatia",
    "lat": 43.53889847,
    "lng": 16.29800034
  },
  {
    "code": "BSL",
    "name": "EuroAirport Basel-Mulhouse-Freiburg Airport",
    "city": "Mulhouse",
    "country": "France",
    "lat": 47.59,
    "lng": 7.5291667
  },
  {
    "code": "CGP",
    "name": "Shah Amanat International Airport",
    "city": "Chittagong",
    "country": "Bangladesh",
    "lat": 22.24959946,
    "lng": 91.81330109
  },
  {
    "code": "EMA",
    "name": "East Midlands Airport",
    "city": "East Midlands",
    "country": "United Kingdom",
    "lat": 52.83110046,
    "lng": -1.328060031
  },
  {
    "code": "LCA",
    "name": "Larnaca International Airport",
    "city": "Larnaca",
    "country": "Cyprus",
    "lat": 34.87509918,
    "lng": 33.62490082
  },
  {
    "code": "BKO",
    "name": "Modibo Keita International Airport",
    "city": "Bamako",
    "country": "Mali",
    "lat": 12.5335,
    "lng": -7.94994
  },
  {
    "code": "DKR",
    "name": "Léopold Sédar Senghor International Airport",
    "city": "Dakar",
    "country": "Senegal",
    "lat": 14.73970032,
    "lng": -17.49020004
  },
  {
    "code": "BNA",
    "name": "Nashville International Airport",
    "city": "Nashville",
    "country": "United States",
    "lat": 36.12450027,
    "lng": -86.67819977
  },
  {
    "code": "MEX",
    "name": "Licenciado Benito Juarez International Airport",
    "city": "Mexico City",
    "country": "Mexico",
    "lat": 19.4363,
    "lng": -99.072098
  },
  {
    "code": "TIJ",
    "name": "General Abelardo L. Rodríguez International Airport",
    "city": "Tijuana",
    "country": "Mexico",
    "lat": 32.54109955,
    "lng": -116.9700012
  },
  {
    "code": "SJD",
    "name": "Los Cabos International Airport",
    "city": "San Jose Del Cabo",
    "country": "Mexico",
    "lat": 23.15180016,
    "lng": -109.7210007
  },
  {
    "code": "AQJ",
    "name": "Aqaba King Hussein International Airport",
    "city": "Aqaba",
    "country": "Jordan",
    "lat": 29.61160088,
    "lng": 35.01810074
  },
  {
    "code": "VNS",
    "name": "Lal Bahadur Shastri Airport",
    "city": "Varanasi",
    "country": "India",
    "lat": 25.45240021,
    "lng": 82.85929871
  },
  {
    "code": "GUM",
    "name": "Antonio B. Won Pat International Airport",
    "city": "Agana",
    "country": "Guam",
    "lat": 13.48340034,
    "lng": 144.7960052
  },
  {
    "code": "SDJ",
    "name": "Sendai Airport",
    "city": "Sendai",
    "country": "Japan",
    "lat": 38.13970184,
    "lng": 140.9170074
  },
  {
    "code": "SJJ",
    "name": "Sarajevo International Airport",
    "city": "Sarajevo",
    "country": "Bosnia and Herzegovina",
    "lat": 43.82460022,
    "lng": 18.3314991
  },
  {
    "code": "BNX",
    "name": "Banja Luka International Airport",
    "city": "Banja Luka",
    "country": "Bosnia and Herzegovina",
    "lat": 44.94139862,
    "lng": 17.29750061
  },
  {
    "code": "KCO",
    "name": "Cengiz Topel Airport",
    "city": "Topel",
    "country": "Turkey",
    "lat": 40.73500061,
    "lng": 30.08329964
  },
  {
    "code": "ESB",
    "name": "Esenboğa International Airport",
    "city": "Ankara",
    "country": "Turkey",
    "lat": 40.12810135,
    "lng": 32.99509811
  },
  {
    "code": "HNL",
    "name": "Daniel K Inouye International Airport",
    "city": "Honolulu",
    "country": "United States",
    "lat": 21.32062,
    "lng": -157.924228
  },
  {
    "code": "MBA",
    "name": "Mombasa Moi International Airport",
    "city": "Mombasa",
    "country": "Kenya",
    "lat": -4.034830093,
    "lng": 39.59420013
  },
  {
    "code": "CZM",
    "name": "Cozumel International Airport",
    "city": "Cozumel",
    "country": "Mexico",
    "lat": 20.5223999,
    "lng": -86.92559814
  },
  {
    "code": "JLN",
    "name": "Joplin Regional Airport",
    "city": "Joplin",
    "country": "United States",
    "lat": 37.15179825,
    "lng": -94.49829865
  },
  {
    "code": "CHC",
    "name": "Christchurch International Airport",
    "city": "Christchurch",
    "country": "New Zealand",
    "lat": -43.48939896,
    "lng": 172.5319977
  },
  {
    "code": "OOL",
    "name": "Gold Coast Airport",
    "city": "Coolangatta",
    "country": "Australia",
    "lat": -28.1644001,
    "lng": 153.5050049
  },
  {
    "code": "KWE",
    "name": "Longdongbao Airport",
    "city": "Guiyang",
    "country": "China",
    "lat": 26.53849983,
    "lng": 106.8010025
  },
  {
    "code": "RTM",
    "name": "Rotterdam The Hague Airport",
    "city": "Rotterdam",
    "country": "Netherlands",
    "lat": 51.956902,
    "lng": 4.43722
  },
  {
    "code": "EGC",
    "name": "Bergerac-Roumanière Airport",
    "city": "Bergerac",
    "country": "France",
    "lat": 44.82529831,
    "lng": 0.518611014
  },
  {
    "code": "RDU",
    "name": "Raleigh Durham International Airport",
    "city": "Raleigh-durham",
    "country": "United States",
    "lat": 35.87760162,
    "lng": -78.78749847
  },
  {
    "code": "LHE",
    "name": "Alama Iqbal International Airport",
    "city": "Lahore",
    "country": "Pakistan",
    "lat": 31.52160072,
    "lng": 74.4036026
  },
  {
    "code": "YQQ",
    "name": "Comox Airport",
    "city": "Comox",
    "country": "Canada",
    "lat": 49.71080017,
    "lng": -124.887001
  },
  {
    "code": "AMA",
    "name": "Rick Husband Amarillo International Airport",
    "city": "Amarillo",
    "country": "United States",
    "lat": 35.219398,
    "lng": -101.706001
  },
  {
    "code": "JNB",
    "name": "OR Tambo International Airport",
    "city": "Johannesburg",
    "country": "South Africa",
    "lat": -26.1392,
    "lng": 28.246
  },
  {
    "code": "GYS",
    "name": "Guangyuan Airport",
    "city": "Guangyuan",
    "country": "China",
    "lat": 32.39110184,
    "lng": 105.7020035
  },
  {
    "code": "MDW",
    "name": "Chicago Midway International Airport",
    "city": "Chicago",
    "country": "United States",
    "lat": 41.785999,
    "lng": -87.752403
  },
  {
    "code": "STL",
    "name": "St Louis Lambert International Airport",
    "city": "St. Louis",
    "country": "United States",
    "lat": 38.748697,
    "lng": -90.370003
  },
  {
    "code": "SDF",
    "name": "Louisville International Standiford Field",
    "city": "Louisville",
    "country": "United States",
    "lat": 38.1744,
    "lng": -85.736
  },
  {
    "code": "FNA",
    "name": "Lungi International Airport",
    "city": "Freetown",
    "country": "Sierra Leone",
    "lat": 8.61644,
    "lng": -13.1955
  },
  {
    "code": "ROB",
    "name": "Roberts International Airport",
    "city": "Monrovia",
    "country": "Liberia",
    "lat": 6.23379,
    "lng": -10.3623
  },
  {
    "code": "JPA",
    "name": "Presidente Castro Pinto International Airport",
    "city": "Joao Pessoa",
    "country": "Brazil",
    "lat": -7.145833015,
    "lng": -34.94861221
  },
  {
    "code": "KMQ",
    "name": "Komatsu Airport",
    "city": "Kanazawa",
    "country": "Japan",
    "lat": 36.39459991,
    "lng": 136.4069977
  },
  {
    "code": "EXT",
    "name": "Exeter International Airport",
    "city": "Exeter",
    "country": "United Kingdom",
    "lat": 50.7344017,
    "lng": -3.413889885
  },
  {
    "code": "BLQ",
    "name": "Bologna Guglielmo Marconi Airport",
    "city": "Bologna",
    "country": "Italy",
    "lat": 44.5354,
    "lng": 11.2887
  },
  {
    "code": "KOW",
    "name": "Ganzhou Airport",
    "city": "Ganzhou",
    "country": "China",
    "lat": 25.853333,
    "lng": 114.778889
  },
  {
    "code": "CGQ",
    "name": "Longjia Airport",
    "city": "Changchun",
    "country": "China",
    "lat": 43.99620056,
    "lng": 125.6849976
  },
  {
    "code": "FOC",
    "name": "Fuzhou Changle International Airport",
    "city": "Fuzhou",
    "country": "China",
    "lat": 25.93510056,
    "lng": 119.663002
  },
  {
    "code": "MFM",
    "name": "Macau International Airport",
    "city": "Macau",
    "country": "Macau",
    "lat": 22.149599,
    "lng": 113.592003
  },
  {
    "code": "JAX",
    "name": "Jacksonville International Airport",
    "city": "Jacksonville",
    "country": "United States",
    "lat": 30.49410057,
    "lng": -81.68789673
  },
  {
    "code": "DBV",
    "name": "Dubrovnik Airport",
    "city": "Dubrovnik",
    "country": "Croatia",
    "lat": 42.56140137,
    "lng": 18.26819992
  },
  {
    "code": "LEX",
    "name": "Blue Grass Airport",
    "city": "Lexington KY",
    "country": "United States",
    "lat": 38.03649902,
    "lng": -84.60590363
  },
  {
    "code": "LIH",
    "name": "Lihue Airport",
    "city": "Lihue",
    "country": "United States",
    "lat": 21.97599983,
    "lng": -159.3390045
  },
  {
    "code": "LIR",
    "name": "Daniel Oduber Quiros International Airport",
    "city": "Liberia",
    "country": "Costa Rica",
    "lat": 10.5933,
    "lng": -85.544403
  },
  {
    "code": "LAS",
    "name": "McCarran International Airport",
    "city": "Las Vegas",
    "country": "United States",
    "lat": 36.08010101,
    "lng": -115.1520004
  },
  {
    "code": "YYJ",
    "name": "Victoria International Airport",
    "city": "Victoria",
    "country": "Canada",
    "lat": 48.64690018,
    "lng": -123.4260025
  },
  {
    "code": "TIP",
    "name": "Tripoli International Airport",
    "city": "Tripoli",
    "country": "Libya",
    "lat": 32.66350174,
    "lng": 13.1590004
  },
  {
    "code": "SCQ",
    "name": "Santiago de Compostela Airport",
    "city": "Santiago",
    "country": "Spain",
    "lat": 42.89630127,
    "lng": -8.415140152
  },
  {
    "code": "HHN",
    "name": "Frankfurt-Hahn Airport",
    "city": "Hahn",
    "country": "Germany",
    "lat": 49.9487,
    "lng": 7.26389
  },
  {
    "code": "POA",
    "name": "Salgado Filho Airport",
    "city": "Porto Alegre",
    "country": "Brazil",
    "lat": -29.99440002,
    "lng": -51.17139816
  },
  {
    "code": "MVD",
    "name": "Carrasco International /General C L Berisso Airport",
    "city": "Montevideo",
    "country": "Uruguay",
    "lat": -34.838402,
    "lng": -56.0308
  },
  {
    "code": "BBI",
    "name": "Biju Patnaik Airport",
    "city": "Bhubaneswar",
    "country": "India",
    "lat": 20.24440002,
    "lng": 85.81780243
  },
  {
    "code": "VXE",
    "name": "São Pedro Airport",
    "city": "Sao Vicente Island",
    "country": "Cape Verde",
    "lat": 16.83320045,
    "lng": -25.05529976
  },
  {
    "code": "MHT",
    "name": "Manchester-Boston Regional Airport",
    "city": "Manchester NH",
    "country": "United States",
    "lat": 42.932598,
    "lng": -71.435699
  },
  {
    "code": "PSR",
    "name": "Pescara International Airport",
    "city": "Pescara",
    "country": "Italy",
    "lat": 42.431702,
    "lng": 14.1811
  },
  {
    "code": "VNO",
    "name": "Vilnius International Airport",
    "city": "Vilnius",
    "country": "Lithuania",
    "lat": 54.634102,
    "lng": 25.285801
  },
  {
    "code": "GSO",
    "name": "Piedmont Triad International Airport",
    "city": "Greensboro",
    "country": "United States",
    "lat": 36.09780121,
    "lng": -79.93730164
  },
  {
    "code": "DIY",
    "name": "Diyarbakir Airport",
    "city": "Diyabakir",
    "country": "Turkey",
    "lat": 37.89390183,
    "lng": 40.20100021
  },
  {
    "code": "BUZ",
    "name": "Bushehr Airport",
    "city": "Bushehr",
    "country": "Iran",
    "lat": 28.94479942,
    "lng": 50.83459854
  },
  {
    "code": "MMJ",
    "name": "Matsumoto Airport",
    "city": "Matsumoto",
    "country": "Japan",
    "lat": 36.16680145,
    "lng": 137.9230042
  },
  {
    "code": "DLU",
    "name": "Dali Airport",
    "city": "Dali",
    "country": "China",
    "lat": 25.649401,
    "lng": 100.319
  },
  {
    "code": "ZUH",
    "name": "Zhuhai Jinwan Airport",
    "city": "Zhuhai",
    "country": "China",
    "lat": 22.006399,
    "lng": 113.375999
  },
  {
    "code": "DIE",
    "name": "Arrachart Airport",
    "city": "Antsiranana",
    "country": "Madagascar",
    "lat": -12.34939957,
    "lng": 49.29169846
  },
  {
    "code": "NOS",
    "name": "Fascene Airport",
    "city": "Nosy-be",
    "country": "Madagascar",
    "lat": -13.31210041,
    "lng": 48.31480026
  },
  {
    "code": "BWI",
    "name": "Baltimore/Washington International Thurgood Marshall Airport",
    "city": "Baltimore",
    "country": "United States",
    "lat": 39.1754,
    "lng": -76.668297
  },
  {
    "code": "BEY",
    "name": "Beirut Rafic Hariri International Airport",
    "city": "Beirut",
    "country": "Lebanon",
    "lat": 33.82089996,
    "lng": 35.48839951
  },
  {
    "code": "AUA",
    "name": "Queen Beatrix International Airport",
    "city": "Oranjestad",
    "country": "Aruba",
    "lat": 12.5014,
    "lng": -70.015198
  },
  {
    "code": "ZBR",
    "name": "Konarak Airport",
    "city": "Chah Bahar",
    "country": "Iran",
    "lat": 25.44330025,
    "lng": 60.38209915
  },
  {
    "code": "THR",
    "name": "Mehrabad International Airport",
    "city": "Teheran",
    "country": "Iran",
    "lat": 35.68920135,
    "lng": 51.31340027
  },
  {
    "code": "RJA",
    "name": "Rajahmundry Airport",
    "city": "Rajahmundry",
    "country": "India",
    "lat": 17.11039925,
    "lng": 81.81819916
  },
  {
    "code": "PNH",
    "name": "Phnom Penh International Airport",
    "city": "Phnom-penh",
    "country": "Cambodia",
    "lat": 11.54660034,
    "lng": 104.8440018
  },
  {
    "code": "KOA",
    "name": "Ellison Onizuka Kona International At Keahole Airport",
    "city": "Kona",
    "country": "United States",
    "lat": 19.738783,
    "lng": -156.045603
  },
  {
    "code": "TGD",
    "name": "Podgorica Airport",
    "city": "Podgorica",
    "country": "Montenegro",
    "lat": 42.359402,
    "lng": 19.2519
  },
  {
    "code": "BNE",
    "name": "Brisbane International Airport",
    "city": "Brisbane",
    "country": "Australia",
    "lat": -27.38419914,
    "lng": 153.1170044
  },
  {
    "code": "NAN",
    "name": "Nadi International Airport",
    "city": "Nandi",
    "country": "Fiji",
    "lat": -17.7553997,
    "lng": 177.4429932
  },
  {
    "code": "YEG",
    "name": "Edmonton International Airport",
    "city": "Edmonton",
    "country": "Canada",
    "lat": 53.30970001,
    "lng": -113.5800018
  },
  {
    "code": "TTE",
    "name": "Sultan Khairun Babullah Airport",
    "city": "Ternate",
    "country": "Indonesia",
    "lat": 0.831413984,
    "lng": 127.3809967
  },
  {
    "code": "UPG",
    "name": "Hasanuddin International Airport",
    "city": "Ujung Pandang",
    "country": "Indonesia",
    "lat": -5.061629772,
    "lng": 119.5540009
  },
  {
    "code": "BWN",
    "name": "Brunei International Airport",
    "city": "Bandar Seri Begawan",
    "country": "Brunei",
    "lat": 4.944200039,
    "lng": 114.9280014
  },
  {
    "code": "GOA",
    "name": "Genoa Cristoforo Colombo Airport",
    "city": "Genoa",
    "country": "Italy",
    "lat": 44.4133,
    "lng": 8.8375
  },
  {
    "code": "CJB",
    "name": "Coimbatore International Airport",
    "city": "Coimbatore",
    "country": "India",
    "lat": 11.02999973,
    "lng": 77.04340363
  },
  {
    "code": "JXA",
    "name": "Jixi Xingkaihu Airport",
    "city": "Jixi",
    "country": "China",
    "lat": 45.293,
    "lng": 131.193
  },
  {
    "code": "SHE",
    "name": "Taoxian Airport",
    "city": "Shenyang",
    "country": "China",
    "lat": 41.63980103,
    "lng": 123.4830017
  },
  {
    "code": "DPS",
    "name": "Ngurah Rai (Bali) International Airport",
    "city": "Denpasar",
    "country": "Indonesia",
    "lat": -8.748169899,
    "lng": 115.1669998
  },
  {
    "code": "DRW",
    "name": "Darwin International Airport",
    "city": "Darwin",
    "country": "Australia",
    "lat": -12.41469955,
    "lng": 130.8769989
  },
  {
    "code": "SLC",
    "name": "Salt Lake City International Airport",
    "city": "Salt Lake City",
    "country": "United States",
    "lat": 40.78839874,
    "lng": -111.9779968
  },
  {
    "code": "CMB",
    "name": "Bandaranaike International Colombo Airport",
    "city": "Colombo",
    "country": "Sri Lanka",
    "lat": 7.180759907,
    "lng": 79.88410187
  },
  {
    "code": "ENU",
    "name": "Akanu Ibiam International Airport",
    "city": "Enugu",
    "country": "Nigeria",
    "lat": 6.474269867,
    "lng": 7.56196022
  },
  {
    "code": "DUB",
    "name": "Dublin Airport",
    "city": "Dublin",
    "country": "Ireland",
    "lat": 53.421299,
    "lng": -6.27007
  },
  {
    "code": "TAO",
    "name": "Liuting Airport",
    "city": "Qingdao",
    "country": "China",
    "lat": 36.26610184,
    "lng": 120.3740005
  },
  {
    "code": "MEI",
    "name": "Key Field",
    "city": "Meridian",
    "country": "United States",
    "lat": 32.33259964,
    "lng": -88.75189972
  },
  {
    "code": "CPT",
    "name": "Cape Town International Airport",
    "city": "Cape Town",
    "country": "South Africa",
    "lat": -33.96480179,
    "lng": 18.60169983
  },
  {
    "code": "UIO",
    "name": "Mariscal Sucre International Airport",
    "city": "Quito",
    "country": "Ecuador",
    "lat": -0.129166667,
    "lng": -78.3575
  },
  {
    "code": "GYE",
    "name": "José Joaquín de Olmedo International Airport",
    "city": "Guayaquil",
    "country": "Ecuador",
    "lat": -2.15741992,
    "lng": -79.88359833
  },
  {
    "code": "ANF",
    "name": "Andrés Sabella Gálvez International Airport",
    "city": "Antofagasta",
    "country": "Chile",
    "lat": -23.444501,
    "lng": -70.445099
  },
  {
    "code": "GUW",
    "name": "Atyrau Airport",
    "city": "Atyrau",
    "country": "Kazakhstan",
    "lat": 47.12189865,
    "lng": 51.82139969
  },
  {
    "code": "ALA",
    "name": "Almaty Airport",
    "city": "Alma-ata",
    "country": "Kazakhstan",
    "lat": 43.35210037,
    "lng": 77.04049683
  },
  {
    "code": "BJV",
    "name": "Milas Bodrum International Airport",
    "city": "Bodrum",
    "country": "Turkey",
    "lat": 37.25059891,
    "lng": 27.66430092
  },
  {
    "code": "YIC",
    "name": "Yichun Mingyueshan Airport",
    "city": "Yichun",
    "country": "China",
    "lat": 27.8025,
    "lng": 114.3062
  },
  {
    "code": "SAP",
    "name": "Ramón Villeda Morales International Airport",
    "city": "San Pedro Sula",
    "country": "Honduras",
    "lat": 15.4526,
    "lng": -87.923599
  },
  {
    "code": "LPM",
    "name": "Lamap Airport",
    "city": "Lamap",
    "country": "Vanuatu",
    "lat": -16.4611228,
    "lng": 167.829253
  },
  {
    "code": "IKA",
    "name": "Imam Khomeini International Airport",
    "city": "Tehran",
    "country": "Iran",
    "lat": 35.41609955,
    "lng": 51.15219879
  },
  {
    "code": "IXE",
    "name": "Mangalore International Airport",
    "city": "Mangalore",
    "country": "India",
    "lat": 12.9612999,
    "lng": 74.89009857
  },
  {
    "code": "YXL",
    "name": "Sioux Lookout Airport",
    "city": "Sioux Lookout",
    "country": "Canada",
    "lat": 50.11389923,
    "lng": -91.90529633
  },
  {
    "code": "ZRJ",
    "name": "Round Lake (Weagamow Lake) Airport",
    "city": "Round Lake",
    "country": "Canada",
    "lat": 52.9435997,
    "lng": -91.31279755
  },
  {
    "code": "FMM",
    "name": "Memmingen Allgau Airport",
    "city": "Memmingen",
    "country": "Germany",
    "lat": 47.98880005,
    "lng": 10.23950005
  },
  {
    "code": "SNN",
    "name": "Shannon Airport",
    "city": "Shannon",
    "country": "Ireland",
    "lat": 52.702,
    "lng": -8.92482
  },
  {
    "code": "HRG",
    "name": "Hurghada International Airport",
    "city": "Hurghada",
    "country": "Egypt",
    "lat": 27.17830086,
    "lng": 33.79940033
  },
  {
    "code": "ODS",
    "name": "Odessa International Airport",
    "city": "Odessa",
    "country": "Ukraine",
    "lat": 46.42679977,
    "lng": 30.67650032
  },
  {
    "code": "HEL",
    "name": "Helsinki Vantaa Airport",
    "city": "Helsinki",
    "country": "Finland",
    "lat": 60.31719971,
    "lng": 24.9633007
  },
  {
    "code": "KRK",
    "name": "Kraków John Paul II International Airport",
    "city": "Krakow",
    "country": "Poland",
    "lat": 50.077702,
    "lng": 19.7848
  },
  {
    "code": "JIC",
    "name": "Jinchuan Airport",
    "city": "Jinchuan",
    "country": "China",
    "lat": 38.54222222,
    "lng": 102.3483333
  },
  {
    "code": "GOJ",
    "name": "Nizhny Novgorod Strigino International Airport",
    "city": "Nizhniy Novgorod",
    "country": "Russia",
    "lat": 56.23009872,
    "lng": 43.7840004
  },
  {
    "code": "SFB",
    "name": "Orlando Sanford International Airport",
    "city": "Sanford",
    "country": "United States",
    "lat": 28.77759933,
    "lng": -81.23750305
  },
  {
    "code": "GFK",
    "name": "Grand Forks International Airport",
    "city": "Grand Forks",
    "country": "United States",
    "lat": 47.949299,
    "lng": -97.176102
  },
  {
    "code": "VTE",
    "name": "Wattay International Airport",
    "city": "Vientiane",
    "country": "Laos",
    "lat": 17.98830032,
    "lng": 102.5630035
  },
  {
    "code": "NAY",
    "name": "Beijing Nanyuan Airport",
    "city": "Beijing",
    "country": "China",
    "lat": 39.78279877,
    "lng": 116.3880005
  },
  {
    "code": "CIH",
    "name": "Changzhi Airport",
    "city": "Changzhi",
    "country": "China",
    "lat": 36.247501,
    "lng": 113.125999
  },
  {
    "code": "JNU",
    "name": "Juneau International Airport",
    "city": "Juneau",
    "country": "United States",
    "lat": 58.35499954,
    "lng": -134.576004
  },
  {
    "code": "SIT",
    "name": "Sitka Rocky Gutierrez Airport",
    "city": "Sitka",
    "country": "United States",
    "lat": 57.04710007,
    "lng": -135.3619995
  },
  {
    "code": "IGU",
    "name": "Cataratas International Airport",
    "city": "Foz Do Iguacu",
    "country": "Brazil",
    "lat": -25.60027885,
    "lng": -54.48500061
  },
  {
    "code": "YMM",
    "name": "Fort McMurray Airport",
    "city": "Fort Mcmurray",
    "country": "Canada",
    "lat": 56.65330124,
    "lng": -111.2220001
  },
  {
    "code": "NDJ",
    "name": "N'Djamena International Airport",
    "city": "N'djamena",
    "country": "Chad",
    "lat": 12.1337,
    "lng": 15.034
  },
  {
    "code": "AKU",
    "name": "Aksu Airport",
    "city": "Aksu",
    "country": "China",
    "lat": 41.262501,
    "lng": 80.291702
  },
  {
    "code": "YWK",
    "name": "Wabush Airport",
    "city": "Wabush",
    "country": "Canada",
    "lat": 52.9219017,
    "lng": -66.86440277
  },
  {
    "code": "DNK",
    "name": "Dnipropetrovsk International Airport",
    "city": "Dnepropetrovsk",
    "country": "Ukraine",
    "lat": 48.35720062,
    "lng": 35.1006012
  },
  {
    "code": "CMH",
    "name": "John Glenn Columbus International Airport",
    "city": "Columbus",
    "country": "United States",
    "lat": 39.998001,
    "lng": -82.891899
  },
  {
    "code": "PIT",
    "name": "Pittsburgh International Airport",
    "city": "Pittsburgh",
    "country": "United States",
    "lat": 40.49150085,
    "lng": -80.23290253
  },
  {
    "code": "DMK",
    "name": "Don Mueang International Airport",
    "city": "Bangkok",
    "country": "Thailand",
    "lat": 13.91259956,
    "lng": 100.6070023
  },
  {
    "code": "LGA",
    "name": "La Guardia Airport",
    "city": "New York",
    "country": "United States",
    "lat": 40.77719879,
    "lng": -73.87259674
  },
  {
    "code": "SRQ",
    "name": "Sarasota Bradenton International Airport",
    "city": "Sarasota",
    "country": "United States",
    "lat": 27.39539909,
    "lng": -82.55439758
  },
  {
    "code": "TRR",
    "name": "China Bay Airport",
    "city": "Trinciomalee",
    "country": "Sri Lanka",
    "lat": 8.538510323,
    "lng": 81.18190002
  },
  {
    "code": "GIU",
    "name": "Sigiriya Air Force Base",
    "city": "Sigiriya",
    "country": "Sri Lanka",
    "lat": 7.956669807,
    "lng": 80.72850037
  },
  {
    "code": "MGZ",
    "name": "Myeik Airport",
    "city": "Myeik",
    "country": "Burma",
    "lat": 12.43980026,
    "lng": 98.62149811
  },
  {
    "code": "TVY",
    "name": "Dawei Airport",
    "city": "Dawei",
    "country": "Burma",
    "lat": 14.10389996,
    "lng": 98.20359802
  },
  {
    "code": "GTE",
    "name": "Groote Eylandt Airport",
    "city": "Groote Eylandt",
    "country": "Australia",
    "lat": -13.97500038,
    "lng": 136.4600067
  },
  {
    "code": "CHS",
    "name": "Charleston Air Force Base-International Airport",
    "city": "Charleston",
    "country": "United States",
    "lat": 32.89860153,
    "lng": -80.04049683
  },
  {
    "code": "USM",
    "name": "Samui Airport",
    "city": "Ko Samui",
    "country": "Thailand",
    "lat": 9.547789574,
    "lng": 100.0619965
  },
  {
    "code": "KBV",
    "name": "Krabi Airport",
    "city": "Krabi",
    "country": "Thailand",
    "lat": 8.09912014,
    "lng": 98.98619843
  },
  {
    "code": "TRV",
    "name": "Trivandrum International Airport",
    "city": "Trivandrum",
    "country": "India",
    "lat": 8.48211956,
    "lng": 76.92009735
  },
  {
    "code": "MGA",
    "name": "Augusto C. Sandino (Managua) International Airport",
    "city": "Managua",
    "country": "Nicaragua",
    "lat": 12.14150047,
    "lng": -86.16819763
  },
  {
    "code": "SJO",
    "name": "Juan Santamaria International Airport",
    "city": "San Jose",
    "country": "Costa Rica",
    "lat": 9.993860245,
    "lng": -84.20880127
  },
  {
    "code": "DIK",
    "name": "Dickinson Theodore Roosevelt Regional Airport",
    "city": "Dickinson",
    "country": "United States",
    "lat": 46.79740143,
    "lng": -102.802002
  },
  {
    "code": "GCH",
    "name": "Gachsaran Airport",
    "city": "Gachsaran",
    "country": "Iran",
    "lat": 30.33760071,
    "lng": 50.82799912
  },
  {
    "code": "ISG",
    "name": "New Ishigaki Airport",
    "city": "Ishigaki",
    "country": "Japan",
    "lat": 24.396389,
    "lng": 124.245
  },
  {
    "code": "KDV",
    "name": "Vunisea Airport",
    "city": "Vunisea",
    "country": "Fiji",
    "lat": -19.05809975,
    "lng": 178.1569977
  },
  {
    "code": "KHI",
    "name": "Jinnah International Airport",
    "city": "Karachi",
    "country": "Pakistan",
    "lat": 24.9065,
    "lng": 67.160797
  },
  {
    "code": "ISB",
    "name": "New Islamabad International Airport",
    "city": "Islamabad",
    "country": "Pakistan",
    "lat": 33.560713,
    "lng": 72.851613
  },
  {
    "code": "SWA",
    "name": "Jieyang Chaoshan International Airport",
    "city": "Shantou",
    "country": "China",
    "lat": 23.552,
    "lng": 116.5033
  },
  {
    "code": "ANC",
    "name": "Ted Stevens Anchorage International Airport",
    "city": "Anchorage",
    "country": "United States",
    "lat": 61.17440033,
    "lng": -149.9960022
  },
  {
    "code": "KLG",
    "name": "Kalskag Airport",
    "city": "Kalskag",
    "country": "United States",
    "lat": 61.53630066,
    "lng": -160.3410034
  },
  {
    "code": "BET",
    "name": "Bethel Airport",
    "city": "Bethel",
    "country": "United States",
    "lat": 60.77980042,
    "lng": -161.8379974
  },
  {
    "code": "OKJ",
    "name": "Okayama Airport",
    "city": "Okayama",
    "country": "Japan",
    "lat": 34.75690079,
    "lng": 133.8549957
  },
  {
    "code": "CNX",
    "name": "Chiang Mai International Airport",
    "city": "Chiang Mai",
    "country": "Thailand",
    "lat": 18.76679993,
    "lng": 98.96260071
  },
  {
    "code": "PLU",
    "name": "Pampulha - Carlos Drummond de Andrade Airport",
    "city": "Belo Horizonte",
    "country": "Brazil",
    "lat": -19.8512001,
    "lng": -43.95059967
  },
  {
    "code": "SJK",
    "name": "Professor Urbano Ernesto Stumpf Airport",
    "city": "Sao Jose Dos Campos",
    "country": "Brazil",
    "lat": -23.22920036,
    "lng": -45.86149979
  },
  {
    "code": "GRO",
    "name": "Girona Airport",
    "city": "Gerona",
    "country": "Spain",
    "lat": 41.90100098,
    "lng": 2.760550022
  },
  {
    "code": "WRO",
    "name": "Copernicus Wrocław Airport",
    "city": "Wroclaw",
    "country": "Poland",
    "lat": 51.10269928,
    "lng": 16.88579941
  },
  {
    "code": "BRC",
    "name": "San Carlos De Bariloche Airport",
    "city": "San Carlos De Bariloche",
    "country": "Argentina",
    "lat": -41.151199,
    "lng": -71.157501
  },
  {
    "code": "EQS",
    "name": "Brigadier Antonio Parodi Airport",
    "city": "Esquel",
    "country": "Argentina",
    "lat": -42.90800095,
    "lng": -71.13950348
  },
  {
    "code": "ONT",
    "name": "Ontario International Airport",
    "city": "Ontario",
    "country": "United States",
    "lat": 34.05599976,
    "lng": -117.6009979
  },
  {
    "code": "RTW",
    "name": "Saratov Central Airport",
    "city": "Saratov",
    "country": "Russia",
    "lat": 51.56499863,
    "lng": 46.04669952
  },
  {
    "code": "SEZ",
    "name": "Seychelles International Airport",
    "city": "Mahe",
    "country": "Seychelles",
    "lat": -4.67434,
    "lng": 55.521801
  },
  {
    "code": "LAD",
    "name": "Quatro de Fevereiro Airport",
    "city": "Luanda",
    "country": "Angola",
    "lat": -8.85837,
    "lng": 13.2312
  },
  {
    "code": "WDH",
    "name": "Hosea Kutako International Airport",
    "city": "Windhoek",
    "country": "Namibia",
    "lat": -22.4799,
    "lng": 17.4709
  },
  {
    "code": "MCI",
    "name": "Kansas City International Airport",
    "city": "Kansas City",
    "country": "United States",
    "lat": 39.2976,
    "lng": -94.713898
  },
  {
    "code": "SZZ",
    "name": "Szczecin-Goleniów \"Solidarność\" Airport",
    "city": "Szczecin",
    "country": "Poland",
    "lat": 53.58470154,
    "lng": 14.90219975
  },
  {
    "code": "KOI",
    "name": "Kirkwall Airport",
    "city": "Kirkwall",
    "country": "United Kingdom",
    "lat": 58.95780182,
    "lng": -2.904999971
  },
  {
    "code": "KIV",
    "name": "Chişinău International Airport",
    "city": "Chisinau",
    "country": "Moldova",
    "lat": 46.92770004,
    "lng": 28.93099976
  },
  {
    "code": "VVO",
    "name": "Vladivostok International Airport",
    "city": "Vladivostok",
    "country": "Russia",
    "lat": 43.39899826,
    "lng": 132.147995
  },
  {
    "code": "ORF",
    "name": "Norfolk International Airport",
    "city": "Norfolk",
    "country": "United States",
    "lat": 36.89459991,
    "lng": -76.20120239
  },
  {
    "code": "BPX",
    "name": "Qamdo Bangda Airport",
    "city": "Bangda",
    "country": "China",
    "lat": 30.55360031,
    "lng": 97.10829926
  },
  {
    "code": "PVD",
    "name": "Theodore Francis Green State Airport",
    "city": "Providence",
    "country": "United States",
    "lat": 41.732601,
    "lng": -71.420403
  },
  {
    "code": "BGR",
    "name": "Bangor International Airport",
    "city": "Bangor",
    "country": "United States",
    "lat": 44.80739975,
    "lng": -68.82810211
  },
  {
    "code": "TSN",
    "name": "Tianjin Binhai International Airport",
    "city": "Tianjin",
    "country": "China",
    "lat": 39.12440109,
    "lng": 117.3460007
  },
  {
    "code": "SJU",
    "name": "Luis Munoz Marin International Airport",
    "city": "San Juan",
    "country": "Puerto Rico",
    "lat": 18.43939972,
    "lng": -66.00180054
  },
  {
    "code": "VQS",
    "name": "Vieques Airport",
    "city": "Vieques Island",
    "country": "Puerto Rico",
    "lat": 18.11580086,
    "lng": -65.42269897
  },
  {
    "code": "OUL",
    "name": "Oulu Airport",
    "city": "Oulu",
    "country": "Finland",
    "lat": 64.93009949,
    "lng": 25.35460091
  },
  {
    "code": "CRI",
    "name": "Colonel Hill Airport",
    "city": "Colonel Hill",
    "country": "Bahamas",
    "lat": 22.74559975,
    "lng": -74.18240356
  },
  {
    "code": "AXP",
    "name": "Spring Point Airport",
    "city": "Spring Point",
    "country": "Bahamas",
    "lat": 22.44179916,
    "lng": -73.97090149
  },
  {
    "code": "ADL",
    "name": "Adelaide International Airport",
    "city": "Adelaide",
    "country": "Australia",
    "lat": -34.945,
    "lng": 138.531006
  },
  {
    "code": "AKL",
    "name": "Auckland International Airport",
    "city": "Auckland",
    "country": "New Zealand",
    "lat": -37.0080986,
    "lng": 174.7920074
  },
  {
    "code": "CCS",
    "name": "Simón Bolívar International Airport",
    "city": "Caracas",
    "country": "Venezuela",
    "lat": 10.601194,
    "lng": -66.991222
  },
  {
    "code": "VIG",
    "name": "Juan Pablo Pérez Alfonso Airport",
    "city": "El Vigía",
    "country": "Venezuela",
    "lat": 8.624139,
    "lng": -71.672668
  },
  {
    "code": "NAT",
    "name": "Governador Aluízio Alves International Airport",
    "city": "Natal",
    "country": "Brazil",
    "lat": -5.768056,
    "lng": -35.376111
  },
  {
    "code": "MDL",
    "name": "Mandalay International Airport",
    "city": "Mandalay",
    "country": "Burma",
    "lat": 21.70219994,
    "lng": 95.97789764
  },
  {
    "code": "HKD",
    "name": "Hakodate Airport",
    "city": "Hakodate",
    "country": "Japan",
    "lat": 41.77000046,
    "lng": 140.8220062
  },
  {
    "code": "MBT",
    "name": "Moises R. Espinosa Airport",
    "city": "Masbate",
    "country": "Philippines",
    "lat": 12.369682,
    "lng": 123.630095
  },
  {
    "code": "SCO",
    "name": "Aktau Airport",
    "city": "Aktau",
    "country": "Kazakhstan",
    "lat": 43.8601,
    "lng": 51.091999
  },
  {
    "code": "PBD",
    "name": "Porbandar Airport",
    "city": "Porbandar",
    "country": "India",
    "lat": 21.64870071,
    "lng": 69.65720367
  },